Place_name,Latitude,Longitude,Address,Borough,Neighborhood,Category_name
"Steven Berkowitz, DDS",40.881423,-73.904127,"237 W 233rd St, Bronx, NY 10463",Bronx,Kings Bridge,Health and Medicine
"Rizzo, Mariano Dr - Medical Group of City Islands",40.848252,-73.786562,"340 City Island Ave, Bronx, NY 10464",Bronx,City Island,Health and Medicine
Mercy Midwives Women's Health Center,40.866688,-73.884923,"2847 Webster Ave, Bronx, NY 10458",Bronx,Belmont,Health and Medicine
Lens Lab Express,40.821202,-73.891329,"940 Southern Blvd, Bronx, NY 10459",Bronx,East Morrisania,Health and Medicine
OLA Wellness,40.845529,-73.827819,"1634 Mahan Ave, Bronx, NY 10461",Bronx,Unionport,Health and Medicine
Andre J Singer DDS,40.612984,-74.000527,"7810 17th Ave, Brooklyn, NY 11214",Brooklyn,New Utrecht,Health and Medicine
"Aizman Alexander, MD",40.589098,-73.949748,"2960 Ocean Ave, Brooklyn, NY 11235",Brooklyn,Sheepshead Bay,Health and Medicine
Park Sports Physical T,40.660867,-73.990656,"670 6th Ave (20th St.), Brooklyn, NY 11215",Brooklyn,Park Slope,Health and Medicine
Housing Works Community Health Center,40.674789,-73.874645,"2640 Pitkin Ave, Brooklyn, NY 11208",Brooklyn,City Line,Health and Medicine
Davis Visionworks,40.653903,-73.871654,"494 Gateway Dr, Brooklyn, NY 11239",Brooklyn,Spring Creek,Health and Medicine
Concept Sharpening / Steve's Sharpening Service,40.610448,-73.911905,"2248 E 59th Pl, New York, NY 11234",New York,Mill Island,Health and Medicine
St Joachim & Anne Residences,40.57251,-73.99324,"2720 Surf Ave, Brooklyn, NY 11224",Brooklyn,Coney Island,Health and Medicine
Bravo Volunteer Ambulance Service,40.618988,-74.020723,"8507 7th Ave (86th St), Brooklyn, NY 11228",Brooklyn,Dyker Heights,Health and Medicine
Shorefront Jewish Geriatric Center,40.572637,-73.994507,"3015 W 29th St, Brooklyn, NY 11224",Brooklyn,Coney Island,Health and Medicine
Performance Edge Chiropractic,40.619845,-73.906857,"7112 Avenue U, Brooklyn, NY 11234",Brooklyn,Georgetown,Health and Medicine
Zuckerman Research Center,40.765216,-73.956835,"410 E 69th St, New York, NY 10021",New York,Lenox Hill,Health and Medicine
Ryan Health,40.793644,-73.967551,"110 W 97th St, New York, NY 10025",New York,Manhattan Valley,Health and Medicine
Mount Sinai Morningside Main Hospital Entrance,40.805632,-73.961413,"1111 Amsterdam Ave (at West 114th St.), New York, NY 10025",New York,Harlem,Health and Medicine
First Class Medical Pc,40.698383,-73.833722,"8715 115th St, New York, NY 11418",New York,Richmond Hill,Health and Medicine
Interstate Vets,40.727824,-73.891876,"7108 Grand Ave, Maspeth, NY 11378",Maspeth,Maspeth,Health and Medicine
ProHEALTH Urgent Care of College Point,40.786623,-73.836241,"1 14TH Ave, College Point, NY 11356",College Point,College Point,Health and Medicine
Caliper Orthodontics,40.772199,-73.734546,"25503 Northern Blvd (Morgan St), Little Neck, NY 11362",Little Neck,Little Neck,Health and Medicine
Zucker Hillside Hospital,40.749769,-73.712078,"7559 263rd St, Glen Oaks, NY 11004",Glen Oaks,Glen Oaks,Health and Medicine
Family Foot Care In Queens,40.703882,-73.797927,"16110 Jamaica Ave, Jamaica, NY 11432",Jamaica,Jamaica,Health and Medicine
Krg Medical PC,40.717532,-73.739759,"21533 Jamaica Ave, Queens Village, NY 11428",Queens Village,Cambria Heights,Health and Medicine
Rosedale Dental,40.657236,-73.745471,"23520 147th Ave, Rosedale, NY 11422",Rosedale,Brookville,Health and Medicine
Empire Medical of Rockaway Beach,40.587323,-73.813679,"8820 Rockaway Beach Blvd (88th street), Rockaway Beach, NY 11693",Queens,Seaside,Health and Medicine
21 Avenue Animal Clinic PC,40.782063,-73.913911,"2127 21st Ave, Astoria, NY 11105",Astoria,Astoria,Health and Medicine
Home Base Crisis Intervention,40.584125,-73.822921,"230 Beach 102nd St, Rockaway Park, NY 11694",Rockaway Park,Seaside,Health and Medicine
Yoen Cho Physical Therapy PC,40.762969,-73.813767,"15015 41st Ave, Flushing, NY 11354",Flushing,Flushing,Health and Medicine
Jin Yiping Newyork Presbyterian Queens Hospital Flushing,40.747137,-73.825257,"5645 Main St (at Booth Memorial Ave.), Flushing, NY 11355",Flushing,Queensboro Hills,Health and Medicine
Associated For The Help Of Retarded Children,40.666217,-73.849873,"8420 153rd Ave, Howard Beach, NY 11414",Howard Beach,Lidenwood,Health and Medicine
Advanced Cosmetic Surgery,40.674387,-73.73193,"13333 Brookville Blvd, Rosedale, NY 11422",Rosedale,Laurelton,Health and Medicine
Fishman CTR For Total Eye Care,40.732523,-73.866861,"9229 Queens Blvd, Rego Park, NY 11374",Rego Park,LeFrak City,Health and Medicine
Shop Eyeglasses Today,40.752272,-73.870817,"3537 Junction Blvd, Corona, NY 11368",Corona,Corona,Health and Medicine
St Joseph Medical Center,40.62482,-74.074802,"700 Bay St, Staten Island, NY 10304",Staten Island,St. George,Health and Medicine
CityMD Richmond Urgent Care - Staten Island,40.594008,-74.162446,"2187 Richmond Ave, Staten Island, NY 10314",Staten Island,New Springville,Health and Medicine
Victory Veterinary Practice,40.588362,-74.195771,"4316 Victory Blvd, Staten Island, NY 10314",Staten Island,Chelsea,Health and Medicine
Staten Island Veterinary Group,40.59569,-74.184508,"3875 Victory Blvd, Staten Island, NY 10314",Staten Island,Chelsea,Health and Medicine
Neighborhood Health Center Elizabeth,40.650329,-74.184351,"184 1st St, Elizabeth, NJ 07206",Elizabeth,Port Ivory,Health and Medicine
Institute For Community Living,40.657312,-73.914146,"469 E 98th St, Brooklyn, NY 11212",Brooklyn,Brownsville,Health and Medicine
Lincoln Ferguson Medical PC,40.637345,-73.896969,"9424 Avenue L, Brooklyn, NY 11236",Brooklyn,Canarsie,Health and Medicine
Statcare Urgent & Walk-In Medical Care (Astoria),40.77183,-73.908981,"3715 23rd Ave, Astoria, NY 11105",Astoria,Astoria,Health and Medicine
Tribeca Pediatrics - Upper East Side,40.762151,-73.962484,"304 E 62nd St (Bet 1st & 2nd), New York, NY 10065",New York,Lenox Hill,Health and Medicine
CityMD Sunnyside Urgent Care- Queens,40.742584,-73.917228,"4716 Greenpoint Ave, Sunnyside, NY 11104",Sunnyside,Dutch Kills,Health and Medicine
Sunshine Infusions,40.516188,-74.234013,"7001 Amboy Rd, Staten Island, NY 10307",Staten Island,Harbor Terrace,Health and Medicine
Doshi Diagnostics,40.648818,-73.943767,"1014 Brooklyn Ave (btwn Tilden & Snyder Ave.), Brooklyn, NY 11203",Brooklyn,East Flatbush,Health and Medicine
Universal Physical Therapy,40.587647,-73.811558,"8624 Rockaway Beach Blvd, Rockaway Beach, NY 11693",Rockaway Beach,Hammels,Health and Medicine
Banfield Pet Hospital,40.892948,-73.817912,"830 Pelham Pkwy, Pelham, NY 10803",Pelham,Parkside,Optometrist
Montefiore Medical Group,40.877646,-73.905956,"5525 Broadway, Bronx, NY 10463",Bronx,Kings Bridge,Optometrist
Montefiore Medical Center,40.880007,-73.879724,"111 E 210th St, Bronx, NY 10467",Bronx,Norwood,Optometrist
Providence Rest,40.837426,-73.817334,"3304 Waterbury Ave, Bronx, NY 10465",Bronx,Schuvilerville,Optometrist
Healthway Medical Care Pc,40.850201,-73.893546,"552 E 180th St, Bronx, NY 10457",Bronx,East Tremont,Optometrist
D And D Medical,40.833104,-73.863553,"1310 Leland Ave, Bronx, NY 10472",Bronx,Parkchester,Optometrist
Essen Medical Associates,40.845846,-73.921524,"1550 Dr Martin L King Jr Blvd, New York, NY 10452",New York,Morris Heights,Optometrist
Manhattan Psychiatric Center,40.789095,-73.92965,"1 Wards Is, New York, NY 10035",New York,Spanish Harlem,Optometrist
Madison MRI,40.82041,-73.913257,"3055 3rd Ave (156th Street), Bronx, NY 10451",Bronx,Melrose,Optometrist
Luis E Guerrero,40.830401,-73.865773,"1216 Beach Ave, Bronx, NY 10472",Bronx,Parkchester,Optometrist
Metro Optics Eyewear - Throggs Neck,40.823466,-73.83735,"815 Hutchinson River Pkwy, Bronx, NY 10465",Bronx,Castle Hill,Optometrist
Earl Christopher DVM Middletown Animal Clinic,40.843669,-73.830859,"2968 Middletown Rd, Bronx, NY 10461",Bronx,Unionport,Optometrist
Bronx Park Womens Health,40.850551,-73.865593,"2016 Bronxdale Ave, Bronx, NY 10462",Bronx,Van Nest,Optometrist
"Friedman, Joel M, DDS - Riverdale Oral Surgery",40.885365,-73.914524,"3333 Henry Hudson Pkwy W, Bronx, NY 10463",Bronx,Spuyten Duyvil,Optometrist
Industrial Medicine Associates,40.852053,-73.828271,"3250 Westchester Ave (@ St. Paul Ave), Bronx, NY 10461",Bronx,Westchester,Optometrist
Community Chiropractic of Throggs Neck,40.817854,-73.816156,"4191 E Tremont Ave, Bronx, NY 10465",Bronx,Silver Beach,Optometrist
New York Cancer & Blood Specialists,40.860106,-73.84283,"2330 Eastchester Rd, Bronx, NY 10469",Bronx,Hillside,Optometrist
Quality Control Optics,40.892631,-73.855572,"754 E 233rd St, Bronx, NY 10466",Bronx,Williamsbridge,Optometrist
Mohamed Helal MD,40.628457,-74.025109,"421 78th St, Brooklyn, NY 11209",Brooklyn,Bayridge,Optometrist
Gupta Gastro Associates - Brooklyn Gastroenterology,40.607578,-73.982861,"130 Avenue P, Brooklyn, NY 11204",Brooklyn,Bensonhurst,Optometrist
The Jefferson,40.708967,-73.922041,"455 Jefferson St (Cypress Ave), New York, NY 11237",New York,Bushwick,Optometrist
Interfaith Medical Center,40.678147,-73.937345,"1545 Atlantic Ave (Troy Ave), Brooklyn, NY 11213",Brooklyn,Bedford,Optometrist
Smart Eye Care,40.580693,-73.953435,"37 W End Ave, Brooklyn, NY 11235",Brooklyn,Brighton Beach,Optometrist
Shorefront Jewish Geriatric Center,40.572637,-73.994507,"3015 W 29th St, Brooklyn, NY 11224",Brooklyn,Coney Island,Optometrist
Maimonides Pediatric Primary Care Center,40.630431,-73.996258,"1301 57th St (13th Ave), Brooklyn, NY 11219",Brooklyn,Borough Park,Optometrist
The Brooklyn Hospital Center,40.690104,-73.977933,"121 Dekalb Ave (at Ashland Pl.), Brooklyn, NY 11201",Brooklyn,Clinton Hill,Optometrist
Housing Works Community Health Center,40.674789,-73.874645,"2640 Pitkin Ave, Brooklyn, NY 11208",Brooklyn,City Line,Optometrist
South Side Podiatry,40.619651,-73.908113,"7001 Avenue U, Brooklyn, NY 11234",Brooklyn,Georgetown,Optometrist
Spear Physical Therapy Brooklyn Williamsburg,40.719908,-73.960841,"71 N 7th St (btwn Wythe & Kent Avs), Brooklyn, NY 11249",Brooklyn,North Side,Optometrist
Leung Euston MD,40.617735,-73.969756,"1266 Ocean Pkwy, Brooklyn, NY 11230",Brooklyn,Ocean Parkway,Optometrist
Optically Yours,40.619091,-74.032662,"9215 3rd Ave, Brooklyn, NY 11209",Brooklyn,Bayridge,Optometrist
Mount Sinai West,40.769973,-73.987526,"1000 10th Ave (at 59th Street), New York, NY 10019",New York,San Juan Hill,Optometrist
NYC Health Service,40.749653,-73.999694,"303 9th Ave (28th St.), New York, NY 10001",New York,Chelsea,Optometrist
Spring Ob/Gyn,40.724108,-74.000738,"135 Spring St (Between Wooster and Greene Streets), New York, NY 10012",New York,Downtown,Optometrist
Schweiger Dermatology Group,40.793971,-73.969443,"137 W 96th St, New York, NY 10025",New York,Manhattan Valley,Optometrist
Cardiac Cath Lab,40.805363,-73.961359,"1111 Amsterdam Ave, New York, NY 10025",New York,Harlem,Optometrist
Chung Ying Physical Therapy & Acupuncture,40.707037,-74.0077,"80 Maiden Ln, New York, NY 10038",New York,Downtown,Optometrist
Medical Associates,40.709893,-74.005806,"156 William St (btwn Ann & Beekman St), New York, NY 10038",New York,City Hall,Optometrist
Dr Griesner,40.723433,-73.845097,"108TH St (Jewel Avenue), Forest Hills, NY 11375",Forest Hills,Forest Hills,Optometrist
Main Street Radiology,40.761955,-73.830199,"13625 37th Ave, Flushing, NY 11354",Flushing,Down Town Flushing,Optometrist
Junction Medical,40.753023,-73.875125,"9211 35th Ave, Jackson Heights, NY 11372",Jackson Heights,Elmhurst,Optometrist
Dr Vitale,40.729182,-73.899741,"5375 65th Pl, Maspeth, NY 11378",Maspeth,Maspeth,Optometrist
X Collado Dental Center,40.679902,-73.860443,"10105 77th St, Ozone Park, NY 11416",Ozone Park,City Line,Optometrist
Matteo Chiropractic & Physical Therapy and DOT Physicals,40.778445,-73.839442,"12910 23rd Ave (23rd Ave and 130th st.), College Point, NY 11356",College Point,College Point,Optometrist
BJ's Optical,40.783467,-73.830927,"13705 20th Ave, College Point, NY 11356",College Point,College Point,Optometrist
"Esposito Stephen, MD",40.758825,-73.783613,"4223 Francis Lewis Blvd, Bayside, NY 11361",Bayside,Bayside,Optometrist
Young H Kwon DDS,40.772361,-73.734369,"25517 Northern Blvd, Little Neck, NY 11362",Little Neck,Little Neck,Optometrist
All Bright Dental PC,40.74865,-73.709333,"26309 Union Tpke, Glen Oaks, NY 11004",Glen Oaks,Glen Oaks,Optometrist
Steps To Success Occupatiinal Therapy,40.725896,-73.717828,"24902 Jericho Tpke, Floral Park, NY 11001",Floral Park,Bellaire,Optometrist
Apple Dental,40.718179,-73.833429,"11316 76th Rd (76th Road,), Forest Hills, NY 11375",Forest Hills,Forest Hills,Optometrist
Chapin Home for the Aging,40.714583,-73.801183,"16501 Chapin Pkwy, Queens, NY 11432",Queens,Jamaica Hills,Optometrist
Sunrise Medical Labs,40.717414,-73.740191,"21517 Jamaica Ave, Queens Village, NY 11428",Queens Village,Cambria Heights,Optometrist
54I 10-89,40.667007,-73.789656,"N Conduit Ave (150 St), Jamaica, NY 11434",Jamaica,South Jamaica,Optometrist
Advanced Cosmetic Surgery,40.674387,-73.73193,"13333 Brookville Blvd, Rosedale, NY 11422",Rosedale,Laurelton,Optometrist
Transitional Svces for New York of The Rockaways,40.6054,-73.754853,"1308 Beach Channel Dr, Far Rockaway, NY 11691",Far Rockaway,Far Rockaway,Optometrist
Rock Pharmacy & Surgical,40.587325,-73.813592,"8818 Rockaway Beach Blvd, Rockaway Beach, NY 11693",Rockaway Beach,Hammels,Optometrist
Motion Sports Medicine,40.769926,-73.923853,"2717 Crescent St, Astoria, NY 11102",Astoria,Astoria,Optometrist
Drs. Levitt and Ganci DDS,40.780706,-73.801681,"16034 Willets Point Blvd (Francis Lewis Boulevard), Whitestone, NY 11357",Whitestone,Whitestone,Optometrist
North Shore LIJ Laboratories,40.779814,-73.775126,"2391 Bell Blvd, Bayside, NY 11360",Bayside,Bay Terrace,Optometrist
AdvantageCare Physicians,40.598716,-73.763677,"2915 Far Rockaway Blvd, Far Rockaway, NY 11691",Far Rockaway,Bayswater,Optometrist
Premier Health Services,40.593459,-73.796922,"430 Beach 68th St, Arverne, NY 11692",Arverne,Somerville,Optometrist
Sands Point Physical Therapy,40.584182,-73.822793,"230 Beach 102nd St (at Beach St), Rockaway Park, NY 11694",Rockaway Park,Seaside,Optometrist
Park Ave Psychotherapy Group,40.573183,-73.852594,"167 Beach 135th St, Rockaway Park, NY 11694",Rockaway Park,Rockaway Beach,Optometrist
Fresh Meadows Animal Clinic,40.730264,-73.778252,"19209 Union Tpke, Fresh Meadows, NY 11366",Fresh Meadows,Fresh Meadows,Optometrist
Community First Medical,40.71417,-73.781315,"87-16 Avon St, New York, NY 11432",New York,Hillside,Optometrist
NewYork-Presbyterian Medical Group Queens - Electrophysiology,40.74733,-73.824983,"5645 Main St, Flushing, NY 11355",Flushing,Queensboro Hills,Optometrist
Apple Fitness & Rehabilitation,40.577886,-73.851851,"436 Beach 132nd St, Rockaway Park, NY 11694",Rockaway Park,Rockaway Beach,Optometrist
Resort Nursing Home,40.593566,-73.796926,"430 Beach 68th St, Far Rockaway, NY 11692",Far Rockaway,Somerville,Optometrist
Rosedale Dental,40.657236,-73.745471,"23520 147th Ave, Rosedale, NY 11422",Rosedale,Brookville,Optometrist
"Rita Ellent, Od - The Gardens Eye Care",40.71896,-73.844979,"12 Station Sq, Forest Hills, NY 11375",Forest Hills,Forest Hills,Optometrist
Staten Island Aids Task Force,40.642101,-74.077255,"25 Hyatt St, Staten Island, NY 10301",Staten Island,Brighton Heights,Optometrist
Staten Island Care Center,40.640052,-74.094646,"200 Lafayette Ave, Staten Island, NY 10301",Staten Island,New Brighton,Optometrist
Richmond Community Support Org,40.63541,-74.135025,"235 Port Richmond Ave, Staten Island, NY 10302",Staten Island,Port Richmond,Optometrist
Sayed Gus,40.592974,-74.163211,"2222 Richmond Ave, Staten Island, NY 10314",Staten Island,New Springville,Optometrist
Staten Island Veterinary Group,40.59569,-74.184508,"3875 Victory Blvd, Staten Island, NY 10314",Staten Island,Chelsea,Optometrist
Best Care,40.640575,-74.075928,"60 Bay St, Staten Island, NY 10301",Staten Island,Brighton Heights,Optometrist
Prestige Optical,40.576052,-74.104485,"2239 Hylan Blvd, Staten Island, NY 10306",Staten Island,Grant City,Optometrist
Quest Diagnostics,40.56807,-74.112595,"2627 Hylan Blvd (At Beach Ave.), Staten Island, NY 10306",Staten Island,New Dorp,Optometrist
Dr Ceka's Office,40.51421,-74.235404,"7098 Amboy Rd, Staten Island, NY 10307",Staten Island,Harbor Terrace,Optometrist
FDNY EMS Station 23,40.553932,-74.21324,"1100 Rossville Ave, New York, NY 10309",New York,Rossville,Optometrist
Victory Eye Specialists,40.595885,-74.183341,"3860 Victory Blvd, Staten Island, NY 10314",Staten Island,Chelsea,Optometrist
Silver Lake Nursing Home,40.633657,-74.092115,"275 Castleton Ave, Staten Island, NY 10301",Staten Island,Port Johnson,Optometrist
Value Dental of Elizabeth,40.650716,-74.195223,"324 Elizabeth Ave, Elizabeth, NJ 07206",Elizabeth,Mravlag Manor,Optometrist
Birch Family Services,40.639113,-73.899388,"1321 E 94th St, Brooklyn, NY 11236",Brooklyn,Canarsie,Optometrist
Dynamic Dental Work,40.618547,-73.909117,"6820 Avenue U, Brooklyn, NY 11234",Brooklyn,Georgetown,Optometrist
21 Century Cosmetic Dentistry,40.710316,-73.794325,"16819 Hillside Ave, Jamaica, NY 11432",Jamaica,Jamaica Hills,Optometrist
Bronx Lebanon - Fulton Division,40.831428,-73.902953,"1276 Fulton Ave (E 169th St), Bronx, NY 10456",Bronx,Morrisania,Optometrist
209 NYC Dental,40.759376,-73.967087,"209 E 56th St (3rd Avenue), New York, NY 10022",New York,East Side,Optometrist
VA Medical Center,40.736876,-73.977444,"423 E 23rd St (at 1st Ave), New York, NY 10010",New York,Bellevue,Optometrist
Bedford Stuyvesant Family Health Center,40.680273,-73.944535,"1456 Fulton St (btwn Brooklyn & Kingston), Brooklyn, NY 11216",Brooklyn,Bedford,Optometrist
Autovision,40.679062,-73.898742,"1751 Bushwick Ave, Brooklyn, NY 11207",Brooklyn,Broadway Junction,Optometrist
Visions By Victoria Rose,40.547309,-74.222519,"639 Veterans Rd W, Staten Island, NY 10309",Staten Island,Rossville,Optometrist
Borchelt Peter PhD,40.589842,-73.923361,"102 Canton Ct, Brooklyn, NY 11229",Brooklyn,Gerritsen,Optometrist
"Michael Yuryev, DO - Primary Care Doctor | Family Doctor | Brooklyn, NY",40.603227,-73.952473,"2409 Ocean Ave (Ave T and Ave S), Brooklyn, NY 11229",Brooklyn,Sheepshead Bay,Optometrist
Dr Yu - Pediatricians,40.72225,-73.88438,"Lutheran Ave, Middle Village, NY 11379",Middle Village,Maspeth,Optometrist
Staten Island University Hosp,40.52464,-74.200691,"17 Seguine Ave, Staten Island, NY 10309",Staten Island,Prince's Bay,Optometrist
Philip E Otterbeck DDS,40.574476,-74.122177,"2517 Amboy Rd, Staten Island, NY 10306",Staten Island,New Dorp,Optometrist
Optimum Health and Performance,40.51634,-74.234324,"7001 Amboy Rd, Staten Island, NY 10307",Staten Island,Harbor Terrace,Optometrist
Weiss & Chassen DDS,40.856603,-73.86135,"918 Pelham Pkwy S, Bronx, NY 10462",Bronx,Pelham Parkway,Optometrist
University Hospital of Brooklyn,40.65509,-73.945009,"470 Clarkson Ave (E 37th St), Brooklyn, NY 11203",Brooklyn,Prospect,Optometrist
Beth Abraham,40.903082,-73.848505,"740 Cranford Ave, Bronx, NY 10470",Bronx,Wakefield,Home Health Care Service
Bay Park Nursing Rehab,40.879583,-73.829172,"801 Co Op City Blvd, Bronx, NY 10475",Bronx,Coop City,Home Health Care Service
"Friedman, Joel M, DDS - Riverdale Oral Surgery",40.885365,-73.914524,"3333 Henry Hudson Pkwy W, Bronx, NY 10463",Bronx,Spuyten Duyvil,Home Health Care Service
Schervier Nursing Care Center,40.881652,-73.918019,"2975 Independence Ave, Bronx, NY 10463",Bronx,Marble Hill,Home Health Care Service
NewYork-Presbyterian Allen Hospital,40.873242,-73.913147,"5141 Broadway (220th St), New York, NY 10034",New York,Inwood,Home Health Care Service
All Med Medical,40.899422,-73.858404,"4377 Bronx Blvd (Neried Ave), Bronx, NY 10466",Bronx,Wakefield,Home Health Care Service
North Central Bronx Hospital,40.880453,-73.881273,"3424 Kossuth Ave (at E 208th St), Bronx, NY 10467",Bronx,Norwood,Home Health Care Service
Montefiore Medical Center,40.894326,-73.861066,"600 E 233rd St (Carpenter Ave.), Bronx, NY 10466",Bronx,Williamsbridge,Home Health Care Service
Broadway Eye Care,40.869732,-73.827723,"2075 Bartow Ave, Bronx, NY 10475",Bronx,Coop City,Home Health Care Service
NYC Health + Hospitals/Jacobi,40.855915,-73.84618,"1400 Pelham Pkwy S (at Eastchester Rd), Bronx, NY 10461",Bronx,Pelham Parkway,Home Health Care Service
OLA Wellness,40.845529,-73.827819,"1634 Mahan Ave, Bronx, NY 10461",Bronx,Unionport,Home Health Care Service
Hasan Mahfujul,40.857824,-73.901579,"108 E 183rd St, Bronx, NY 10453",Bronx,Fordham,Home Health Care Service
Luis E Guerrero,40.830401,-73.865773,"1216 Beach Ave, Bronx, NY 10472",Bronx,Parkchester,Home Health Care Service
Russ Berrie Medical Science Pavilion,40.840405,-73.939347,"1150 Saint Nicholas Ave (at W 168th St), New York, NY 10032",New York,Uptown,Home Health Care Service
GVS @ Lincoln Medical Center,40.817533,-73.924083,"234 E 149th St (btwn Park & Morris Ave), Bronx, NY 10451",Bronx,Patterson Houses,Home Health Care Service
"NYC Health + Hospitals/Gotham Health, Belvis",40.81003,-73.915796,"545 E 142nd St, Bronx, NY 10454",Bronx,Mott Haven,Home Health Care Service
Montefiore Medical Center,40.812593,-73.90461,"555 Prospect Ave, Bronx, NY 10455",Bronx,John Adams Houses,Home Health Care Service
Bronx Lebanon - Fulton Division,40.831428,-73.902953,"1276 Fulton Ave (E 169th St), Bronx, NY 10456",Bronx,Morrisania,Home Health Care Service
Medical & Dental Office,40.828445,-73.876594,"1163 Manor Ave (Westcher Avenue), Bronx, NY 10472",Bronx,Longwood,Home Health Care Service
ProHEALTH Urgent Care of College Point,40.786623,-73.836241,"1 14TH Ave, College Point, NY 11356",College Point,College Point,Home Health Care Service
"William E Guerrero, OD - William E Guerrero PC",40.826393,-73.82219,"3730 E Tremont Ave, Bronx, NY 10465",Bronx,Schuvilerville,Home Health Care Service
Bevilacqua Joseph J DDS,40.838295,-73.82931,"2975 Waterbury Ave, Bronx, NY 10461",Bronx,Unionport,Home Health Care Service
South Bronx Mental Health Council,40.835601,-73.848463,"1401 Glover St, Bronx, NY 10462",Bronx,Parkchester,Home Health Care Service
Dr Biagiotti's Office,40.83859,-73.835139,"Tremont Ave (Duddley Ave), Bronx, NY 10461",Bronx,Unionport,Home Health Care Service
A Dental,40.847359,-73.857467,"960 Morris Park Ave, Bronx, NY 10462",Bronx,Van Nest,Home Health Care Service
Montefiore Medical Center Jack D. Weiler Hospital Emergency Department,40.849057,-73.846063,"Albert Einstein Hospital (1825 Eastchester Rd), Bronx, NY 10461",Bronx,Westchester,Home Health Care Service
Healthway Medical Care Pc,40.850201,-73.893546,"552 E 180th St, Bronx, NY 10457",Bronx,East Tremont,Home Health Care Service
"Pinzon, Robin Dr-Riverdale Family Practice",40.879976,-73.907795,"3050 Corlear Ave (at 231st St.), Bronx, NY 10463",Bronx,Kings Bridge,Home Health Care Service
Guilbe Rose MD,40.915821,-73.897133,"503 S Broadway, Yonkers, NY 10705",Yonkers,Fildston,Home Health Care Service
University Diagnostic Medical Imaging Pc,40.844259,-73.839413,"1200 Waters Pl, Bronx, NY 10461",Bronx,Westchester,Home Health Care Service
Robert Vavolizza,40.82938,-73.824665,"3585 E Tremont Ave, Bronx, NY 10465",Bronx,Schuvilerville,Home Health Care Service
Detect Lab,40.823586,-73.820034,"3860 E Tremont Ave, Bronx, NY 10465",Bronx,Throgs Neck,Home Health Care Service
Dr Samarneh Office/Soundview Medical,40.817418,-73.862498,"607 Soundview Ave, Bronx, NY 10473",Bronx,Soundview,Home Health Care Service
Your Bronx Dentist,40.87802,-73.879256,"3310 Bainbridge Ave, Bronx, NY 10467",Bronx,Norwood,Home Health Care Service
Urgent Care of Eastchester Road,40.859946,-73.842781,"2304 Eastchester Rd, Bronx, NY 10469",Bronx,Hillside,Home Health Care Service
Bronx Lebanon Hospital,40.843716,-73.912166,"1645 Grand Concourse (at Mt. Eden Ave.), Bronx, NY 10452",Bronx,Concourse,Home Health Care Service
"Culmine, John Montefiore Medical Group Bronx East",40.835132,-73.84779,"2300 Westchester Ave, Bronx, NY 10462",Bronx,Parkchester,Home Health Care Service
"Jeanne Mannino MA, LMHC",40.628581,-74.024504,"444 77th St, Brooklyn, NY 11209",Brooklyn,Bayridge,Home Health Care Service
VA Medical Center,40.736876,-73.977444,"423 E 23rd St (at 1st Ave), New York, NY 10010",New York,Bellevue,Home Health Care Service
Stand-Up Mri of Bensonhurst PC,40.595465,-73.982692,"2671 86th St, Brooklyn, NY 11223",Brooklyn,Bensonhurst,Home Health Care Service
Irina Berlin Medical PC,40.575991,-73.970095,"3080 W 1st St, Brooklyn, NY 11224",Brooklyn,Brighton Beach,Home Health Care Service
"Leona Kotlyar, DDS - Brooklyn Pediatric Dentistry",40.587848,-73.953667,"1512 Avenue Z, Brooklyn, NY 11235",Brooklyn,Sheepshead Bay,Home Health Care Service
Bedford Stuyvesant Family Health Center,40.680273,-73.944535,"1456 Fulton St (btwn Brooklyn & Kingston), Brooklyn, NY 11216",Brooklyn,Bedford,Home Health Care Service
"Lew, Mark Dr - Mark B Lew, Md Pediatric Center",40.633552,-73.950502,"2704 Glenwood Rd, Brooklyn, NY 11210",Brooklyn,Flatbush,Home Health Care Service
Prospect Park Animal Clinic,40.666686,-73.975408,"105 Prospect Park W (5th Street), Brooklyn, NY 11215",Brooklyn,Park Slope,Home Health Care Service
CityMD Prospect Heights Urgent Care - Brooklyn,40.678202,-73.9735,"288 Flatbush Ave (7th Ave), Brooklyn, NY 11217",Brooklyn,Fort Greene,Home Health Care Service
Neighborhood Natural Medicine,40.710225,-73.949523,"30 Maujer St, Brooklyn, NY 11206",Brooklyn,South Side,Home Health Care Service
Woodhull Medical And Mental Health Center,40.699519,-73.942567,"760 Broadway (at Flushing Ave.), Brooklyn, NY 11206",Brooklyn,Ord-Stuyvesant,Home Health Care Service
Weill Cornell Medicine,40.692482,-73.99168,"186 Joralemon St (Court Street), Brooklyn, NY 11201",Brooklyn,Boerum Hill,Home Health Care Service
Medrite Urgent Care,40.688993,-73.992514,"151 Court St, Brooklyn, NY 11201",Brooklyn,Boerum Hill,Home Health Care Service
BluePearl Pet Hospital,40.680495,-73.984405,"190 3rd Ave, Brooklyn, NY 11217",Brooklyn,Boerum Hill,Home Health Care Service
Cobble Hill Acupuncture,40.690147,-73.996256,"113A Pacific St, Brooklyn, NY 11201",Brooklyn,Brooklyn Heights,Home Health Care Service
Veterinary Emergency & Referral Group,40.678328,-73.982794,"196 4th Ave, New York, NY 11217",New York,Fort Greene,Home Health Care Service
Park Slope Dental Arts,40.670249,-73.978554,"506 3rd St, New York, NY 11215",New York,Park Slope,Home Health Care Service
Bristol Opticians,40.655211,-73.887567,"949 Pennsylvania Ave, Brooklyn, NY 11207",Brooklyn,New Lots,Home Health Care Service
St Judes Medical Center,40.642411,-73.90304,"9413 Flatlands Ave (E. 94th St), Brooklyn, NY 11236",Brooklyn,Canarsie,Home Health Care Service
White G,40.583182,-73.954967,"13 Neptune Ave, Brooklyn, NY 11235",Brooklyn,Brighton Beach,Home Health Care Service
Your Optical,40.578577,-73.975983,"2849 W 8th St, Brooklyn, NY 11224",Brooklyn,Coney Island,Home Health Care Service
"Marina Perlova, MD & Galina Zaretsky, MD",40.601977,-73.988781,"2327 83rd St, Brooklyn, NY 11214",Brooklyn,Bath Beach,Home Health Care Service
Maimonides Medical Center,40.639533,-73.99836,"4802 10th Ave (at W 48th St.), Brooklyn, NY 11219",Brooklyn,Kensington,Home Health Care Service
Dr Koutelos,40.620473,-74.023526,"8501 Fort Hamilton Pkwy, Brooklyn, NY 11209",Brooklyn,Bayridge,Home Health Care Service
Sheepshead Bay Nursing Home,40.585259,-73.931675,"2840 Knapp St, Brooklyn, NY 11235",Brooklyn,Plum Beach,Home Health Care Service
Bay Ridge Orthopedic Association Of Sheepshead Bay,40.607263,-73.942526,"2950 Avenue R, Brooklyn, NY 11229",Brooklyn,Sheepshead Bay,Home Health Care Service
The Brooklyn Hospital Center,40.690104,-73.977933,"121 Dekalb Ave (at Ashland Pl.), Brooklyn, NY 11201",Brooklyn,Clinton Hill,Home Health Care Service
Haym Salomon Home for Nursing & Rehabilitation,40.594879,-73.996339,"2340 Cropsey Ave (Bay 34th St), Brooklyn, NY 11214",Brooklyn,Bath Beach,Home Health Care Service
CityMD Boerum Hill Urgent Care - Brooklyn,40.686162,-73.982184,"457 Atlantic Ave (Nevins Street), New York, NY 11217",New York,Boerum Hill,Home Health Care Service
Park Slope Chiropractic,40.685317,-73.977528,"1 Hanson Pl, Brooklyn, NY 11243",Brooklyn,Fort Greene,Home Health Care Service
Kings County Behavioral Health Center,40.656347,-73.946365,"New York, NY 11203",New York,Prospect,Home Health Care Service
BMS Family Health Center,40.665919,-73.900476,"360 Snediker Ave, Brooklyn, NY 11207",Brooklyn,Brownsville,Home Health Care Service
Professional Transportation,40.685323,-73.863432,"7616 Rockaway Blvd, Woodhaven, NY 11421",Woodhaven,Cypress Hill,Home Health Care Service
Dynamic Dental Work,40.618547,-73.909117,"6820 Avenue U, Brooklyn, NY 11234",Brooklyn,Georgetown,Home Health Care Service
PM Pediatrics,40.626691,-73.965224,"1273 Coney Island Ave (Avenue I And Avenue J), Brooklyn, NY 11230",Brooklyn,Fiske Terrace,Home Health Care Service
Ditmas Park Care Center,40.640146,-73.957728,"2107 Ditmas Ave, Brooklyn, NY 11226",Brooklyn,Flatbush,Home Health Care Service
Performance Edge Chiropractic,40.619845,-73.906857,"7112 Avenue U, Brooklyn, NY 11234",Brooklyn,Georgetown,Home Health Care Service
Metropolitan Dental Arts,40.711802,-73.951067,"380 Union Ave (Powers St), Brooklyn, NY 11211",Brooklyn,South Side,Home Health Care Service
Milo,40.711564,-73.964306,"105 5th Ave, New York, NY 10003",New York,South Side,Home Health Care Service
Spear Physical Therapy Brooklyn Williamsburg,40.719908,-73.960841,"71 N 7th St (btwn Wythe & Kent Avs), Brooklyn, NY 11249",Brooklyn,North Side,Home Health Care Service
NYU Langone Levit Medical,40.609927,-73.960577,"1220 Avenue P, Brooklyn, NY 11229",Brooklyn,Manhattan Terrace,Home Health Care Service
Ophthalmology Associates of Bay Ridge,40.621301,-74.028699,"8721 4th Ave (at 88th St), Brooklyn, NY 11209",Brooklyn,Bayridge,Home Health Care Service
Isabella Geriatric Center,40.854551,-73.927369,"515 Audubon Ave, New York, NY 10040",New York,Fort George,Home Health Care Service
Inwood Animal Clinic,40.866352,-73.924446,"4846 Broadway (Acadamy), New York, NY 10034",New York,Fort George,Home Health Care Service
Harlem VistaSite Eye Care,40.806101,-73.953953,"2204 Frederick Douglass Blvd, New York, NY 10026",New York,Central Harlem,Home Health Care Service
Uptown Dermatology,40.809428,-73.952726,"258 Saint Nicholas Ave, New York, NY 10027",New York,Central Harlem,Home Health Care Service
The Mount Sinai Hospital,40.790388,-73.952037,"1468 Madison Ave (at E 101st St), New York, NY 10029",New York,Carnegie Hill,Home Health Care Service
Manhattan Gastroenterology,40.778185,-73.958254,"983 Park Ave, New York, NY 10028",New York,Upper East Side,Home Health Care Service
Upper East Smiles,40.77296,-73.955867,"261 E 78th St (2nd Ave), New York, NY 10075",New York,Upper East Side,Home Health Care Service
Rockefeller Research Laboratories,40.763916,-73.957047,"430 E 67th St (Memorial Sloan-Kettering Cancer Center), New York, NY 10065",New York,Lenox Hill,Home Health Care Service
David H. Koch Center for Cancer Care at Memorial Sloan Kettering Cancer Center,40.767208,-73.95097,"530 E 74th St, New York, NY 10021",New York,Lenox Hill,Home Health Care Service
Westside Veterinary Center,40.785982,-73.977438,"220 W 83rd St (btwn Amsterdam and Broadway), New York, NY 10024",New York,Upper West Side,Home Health Care Service
HSS Sports Medicine Institute West Side,40.771455,-73.991728,"610 W 58th St, New York, NY 10019",New York,Clinton,Home Health Care Service
BluePearl Veterinary Partners,40.766716,-73.987347,"410 W 55th St (9th Avenue), New York, NY 10019",New York,Clinton,Home Health Care Service
Columbia Primary Care Midtown,40.760203,-73.978748,"51 W 51st St (5th and 6th Avenue), New York, NY 10019",New York,Midtown,Home Health Care Service
SPEAR Physical Therapy,40.741035,-74.001144,"269 W 16th St (8th ave), New York, NY 10011",New York,Chelsea,Home Health Care Service
NYC Retina,40.732145,-73.994768,"20 E 9th St (University Pl), New York, NY 10003",New York,Downtown,Home Health Care Service
Mount Sinai Doctors - Delancey Street,40.719039,-73.988752,"104 Delancey St (Ludlow Street), New York, NY 10002",New York,Chinatown,Home Health Care Service
Weill Cornell Medical Associates,40.716823,-74.006823,"40 Worth St (btwn Church & W Broadway), New York, NY 10013",New York,City Hall Area,Home Health Care Service
Essex Crossing - COVID-19 Vaccine Site,40.718048,-73.989499,"244B Broome Street (Ludlow St), New York, NY 10002",New York,Chinatown,Home Health Care Service
CP Advanced Imaging,40.716571,-73.99625,"155 Canal St, New York, NY 10013",New York,Chinatown,Home Health Care Service
Mount Sinai Doctors - West 14th Street,40.738987,-74.001064,"226 W 14th St (btwn 7th & 8th), New York, NY 10011",New York,Chelsea,Home Health Care Service
Symphony Veterinary Center,40.793688,-73.969913,"170 W 96th St (Amsterdam), New York, NY 10025",New York,Manhattan Valley,Home Health Care Service
"Theradynamics Physical Rehab, PC",40.80735,-73.953695,"2235 Frederick Douglass Blvd, New York, NY 10027",New York,Central Harlem,Home Health Care Service
Bronsky Orthodontics,40.718631,-74.009731,"15 Harrison St, New York, NY 10013",New York,Civic Center,Home Health Care Service
NewYork-Presbyterian Lower Manhattan Hospital,40.710132,-74.004943,"170 William St (at Gold St), New York, NY 10038",New York,City Hall,Home Health Care Service
Elmhurst Hospital Center,40.745082,-73.885837,"7901 Broadway (at 78th St.), Elmhurst, NY 11373",Elmhurst,Elmhurst,Home Health Care Service
Rauta Sylvia Dr,40.747287,-73.87784,"4071 Elbertson St, Elmhurst, NY 11373",Elmhurst,Elmhurst,Home Health Care Service
Elmhurst Hospital Center Clinics,40.745974,-73.884735,"7901 Broadway, Elmhurst, NY 11373",Elmhurst,Elmhurst,Home Health Care Service
Foot and Ankle Center of New York,40.723621,-73.846152,"6939 Yellowstone Blvd, Forest Hills, NY 11375",Forest Hills,Forest Hills,Home Health Care Service
NY Lasergroup,40.694389,-73.827602,"11915 Atlantic Ave, Richmond Hill, NY 11418",Richmond Hill,Richmond Hill,Home Health Care Service
Chon Youngmi,40.763408,-73.828241,"3616 Union St, Flushing, NY 11354",Flushing,Down Town Flushing,Home Health Care Service
"Arelys Santana, DDS - D and S DENTAL",40.750126,-73.876547,"3717 90th St, Jackson Heights, NY 11372",Jackson Heights,Elmhurst,Home Health Care Service
Dr Yu - Pediatricians,40.72225,-73.88438,"Lutheran Ave, Middle Village, NY 11379",Middle Village,Maspeth,Home Health Care Service
"Uday Shah, MD",40.703883,-73.915109,"199 Saint Nicholas Ave (St. Nicholas Avenue and Harman Street), Brooklyn, NY 11237",Brooklyn,Bushwick,Home Health Care Service
"Queens Medical Office, PC",40.693256,-73.861017,"8615 Forest Pkwy, Woodhaven, NY 11421",Woodhaven,Woodhaven,Home Health Care Service
Long Island Jewish Forest Hills,40.728927,-73.851626,"10201 66th Rd (North Shore-LIJ Health System), Forest Hills, NY 11375",Forest Hills,Forest Hills,Home Health Care Service
Independence Residences,40.687411,-73.863988,"9010 77th St, Woodhaven, NY 11421",Woodhaven,Cypress Hill,Home Health Care Service
Woodhaven Braces,40.693317,-73.852426,"8708 Woodhaven Blvd (Jamicia Ave.), Woodhaven, NY 11421",Woodhaven,Brooklyn Manor,Home Health Care Service
Target Optical,40.783675,-73.833338,"13505 20th Ave, College Point, NY 11356",College Point,College Point,Home Health Care Service
Gary B Feldman DPM-Flushing,40.771446,-73.802971,"16101 29th Ave, Flushing, NY 11358",Flushing,Auburndale,Home Health Care Service
Cazazian Abram DDS PC,40.76232,-73.772155,"4203 212th St, Bayside, NY 11361",Bayside,Bayside,Home Health Care Service
Ozanam Hall of Queens Nursing Home,40.758751,-73.7823,"4241 201st St, Bayside, NY 11361",Bayside,Bayside,Home Health Care Service
Cohen Children's Medical Center,40.753586,-73.708231,"26901 76th Ave, New Hyde Park, NY 11040",New Hyde Park,Glen Oaks,Home Health Care Service
Leroy Herbert Md,40.728019,-73.714844,"25017 88th Rd, Bellerose, NY 11426",Bellerose,Bellaire,Home Health Care Service
Better Living Through Dentistry,40.711992,-73.826575,"12510 Queens Blvd (82nd Road), Kew Gardens, NY 11415",Kew Gardens,Briarwood,Home Health Care Service
Fried Philip MD,40.741437,-73.786456,"5847 188th St, Fresh Meadows, NY 11365",Fresh Meadows,Fresh Meadows,Home Health Care Service
"Predanic Mladen, MD",40.701309,-73.816336,"8900 Van Wyck Expy, Richmond Hill, NY 11418",Richmond Hill,Briarwood,Home Health Care Service
Queens Medical Group,40.705634,-73.798992,"8931 161st St (90 Ave.), Jamaica, NY 11432",Jamaica,Jamaica,Home Health Care Service
NewYork-Presbyterian Medical Group Queens Pediatric Care,40.743932,-73.777374,"19815 Horace Harding Expy (Francis Lewis Boulevard), Fresh Meadows, NY 11365",Fresh Meadows,Fresh Meadows,Home Health Care Service
Bellerose Rescue,40.707027,-73.741583,"Braddock Ave, Bellerose, NY 11426",Bellerose,Cambria Heights,Home Health Care Service
Family Foot Care In Queens,40.703882,-73.797927,"16110 Jamaica Ave, Jamaica, NY 11432",Jamaica,Jamaica,Home Health Care Service
Med-One Care,40.679651,-73.752034,"21714 Merrick Blvd, Laurelton, NY 11413",Laurelton,Laurelton,Home Health Care Service
Denran Medical Service PC,40.691362,-73.7793,"11410 Merrick Blvd, Jamaica, NY 11434",Jamaica,Locust Manor,Home Health Care Service
South Shore Opticians,40.661858,-73.720001,"1033 Green Acres Mall, Valley Stream, NY 11581",Valley Stream,Rosedale,Home Health Care Service
Far Rockaway Eye Care,40.605547,-73.755424,"1304 Beach Channel Dr, Far Rockaway, NY 11691",Far Rockaway,Far Rockaway,Home Health Care Service
Universal Physical Therapy,40.587647,-73.811558,"8624 Rockaway Beach Blvd, Rockaway Beach, NY 11693",Rockaway Beach,Hammels,Home Health Care Service
Sheepshead Nursing and Rehabilitation Center,40.585259,-73.931675,"2840 Knapp St, Brooklyn, NY 11235",Brooklyn,Plum Beach,Home Health Care Service
Neurosurgery at Mount Sinai Queens,40.768224,-73.924968,"2510 30th Ave, Long Island City, NY 11102",Long Island City,Astoria,Home Health Care Service
St Mary's Hospital For Children,40.776631,-73.768636,"2901 216th St (Turner Construction Site), Bayside, NY 11360",Bayside,Bayside,Home Health Care Service
Queens Long Island Medical,40.598774,-73.763549,"2915 Far Rockaway Blvd, Far Rockaway, NY 11691",Far Rockaway,Bayswater,Home Health Care Service
Resort Nursing Home,40.593566,-73.796926,"430 Beach 68th St, Far Rockaway, NY 11692",Far Rockaway,Somerville,Home Health Care Service
Silver Star Urgent Care,40.584241,-73.822577,"230 Beach 102nd St (at Rockaway Beach Blvd), Rockaway Park, NY 11694",Rockaway Park,Seaside,Home Health Care Service
Apple Fitness & Rehabilitation,40.577886,-73.851851,"436 Beach 132nd St, Rockaway Park, NY 11694",Rockaway Park,Rockaway Beach,Home Health Care Service
All Bright Dental PC,40.74865,-73.709333,"26309 Union Tpke, Glen Oaks, NY 11004",Glen Oaks,Glen Oaks,Home Health Care Service
Community First Medical,40.71417,-73.781315,"87-16 Avon St, New York, NY 11432",New York,Hillside,Home Health Care Service
Queens Long Island,40.713289,-73.78207,"18005 Hillside Ave, Jamaica, NY 11432",Jamaica,Hillside,Home Health Care Service
CRT Surgery,40.747592,-73.826452,"5620 Main St, Flushing, NY 11355",Flushing,Queensboro Hills,Home Health Care Service
Chapin Home for the Aging,40.714583,-73.801183,"16501 Chapin Pkwy, Queens, NY 11432",Queens,Jamaica Hills,Home Health Care Service
Precision Dental NYC: Dr. Alexander Bokser & Dr. Irene Bokser,40.769253,-73.926842,"2134 30th Ave, Astoria, NY 11102",Astoria,Astoria,Home Health Care Service
Cucchiara Family Dentistry,40.667669,-73.84792,"15120 88th St, Howard Beach, NY 11414",Howard Beach,Lidenwood,Home Health Care Service
LensCrafters at Macy's,40.734518,-73.871412,"9001 Queens Blvd, Elmhurst, NY 11373",Elmhurst,Elmhurst,Home Health Care Service
Park Ave Psychotherapy Group,40.573183,-73.852594,"167 Beach 135th St, Rockaway Park, NY 11694",Rockaway Park,Rockaway Beach,Home Health Care Service
Dr Steven Epstein,40.579464,-73.838724,"11718 Rockaway Beach Blvd, Rockaway Park, NY 11694",Rockaway Park,Boardwalk,Home Health Care Service
Lifespire Springfield Gardens,40.676598,-73.751275,"13604 220th St, Laurelton, NY 11413",Laurelton,Laurelton,Home Health Care Service
Unique Peoples Services,40.719896,-73.734948,"9450 220th St, Queens Village, NY 11428",Queens Village,Bellaire,Home Health Care Service
Junction Medical,40.753023,-73.875125,"9211 35th Ave, Jackson Heights, NY 11372",Jackson Heights,Elmhurst,Home Health Care Service
Guarnaccia Gary J MD PC,40.71874,-73.836766,"11203 Queens Blvd, Forest Hills, NY 11375",Forest Hills,Forest Hills,Home Health Care Service
"Staten Island University Hospital, AIDS/HIV Services, Bay Street Health Center HIV Clinic",40.638669,-74.074717,"57 Bay St, Staten Island, NY 10301",Staten Island,Richmond,Home Health Care Service
Dr. Michele Menichella Chiropractic Office,40.63437,-74.110839,"323 Oakland Ave, Staten Island, NY 10310",Staten Island,West New Brighton,Home Health Care Service
Silver Lake Nursing Home,40.633657,-74.092115,"275 Castleton Ave, Staten Island, NY 10301",Staten Island,Port Johnson,Home Health Care Service
Mccarthy John D Do,40.586671,-74.104101,"1776 Richmond Rd (Seaver avenue), Staten Island, NY 10306",Staten Island,Dongan Hills,Home Health Care Service
Cardio Vascular of Associates of S I,40.583333,-74.084896,"501 Seaview Ave, Staten Island, NY 10305",Staten Island,Midland Beach,Home Health Care Service
Aadobe Pet Hospital,40.626203,-74.132892,"1294 Forest Ave, Staten Island, NY 10302",Staten Island,Westerleigh,Home Health Care Service
Primary Care Ambulance Co.,40.63788,-74.15047,"2699 Richmond Ter (Lake Ave.), Staten Island, NY 10303",Staten Island,Mariners Harbor,Home Health Care Service
Person Centered Care Service,40.613205,-74.123893,"1811 Victory Blvd, Staten Island, NY 10314",Staten Island,Castleton Corners,Home Health Care Service
City Md,40.59406,-74.162492,"2187 Richmond Ave, Staten Island, NY 10314",Staten Island,New Springville,Home Health Care Service
Victory Eye Specialists,40.595885,-74.183341,"3860 Victory Blvd, Staten Island, NY 10314",Staten Island,Chelsea,Home Health Care Service
Robert A Miele,40.572741,-74.113095,"364 Edison St, Staten Island, NY 10306",Staten Island,New Dorp,Home Health Care Service
Dr Ceka's Office,40.51421,-74.235404,"7098 Amboy Rd, Staten Island, NY 10307",Staten Island,Harbor Terrace,Home Health Care Service
Gordon,40.640788,-74.076024,"56 Bay Street Lndg, Staten Island, NY 10301",Staten Island,Brighton Heights,Home Health Care Service
Edward Levine,40.61378,-74.101572,"1374 Clove Rd, Staten Island, NY 10301",Staten Island,Fox Hills,Home Health Care Service
PAWSitive Veterinary of New York,40.647279,-73.968985,"1103 Church Ave (Stratford Road), Brooklyn, NY 11218",Brooklyn,Prospect Park Sout,Home Health Care Service
University Hospital of Brooklyn,40.65509,-73.945009,"470 Clarkson Ave (E 37th St), Brooklyn, NY 11203",Brooklyn,Prospect,Home Health Care Service
Staten Island Medical Center,40.605228,-74.091548,"11 Ralph Pl, Staten Island, NY 10304",Staten Island,Stapleton,Home Health Care Service
JAG-ONE Physical Therapy,40.625991,-74.13467,"1351 Forest Ave, Staten Island, NY 10302",Staten Island,Westerleigh,Home Health Care Service
Staten Island Oral and Maxillofacial Surgery,40.586213,-74.085885,"256 Mason Ave, Staten Island, NY 10305",Staten Island,Midland Beach,Home Health Care Service
Roccaro Gregory DVM,40.591508,-74.100645,"1564 Richmond Rd, Staten Island, NY 10304",Staten Island,Dongan Hills,Home Health Care Service
Winter Debra DPM,40.581887,-74.098069,"1975 Hylan Blvd, Staten Island, NY 10306",Staten Island,Dongan Hills,Home Health Care Service
Vision Gallery,40.573885,-74.106876,"2351 Hylan Blvd, Staten Island, NY 10306",Staten Island,New Dorp,Home Health Care Service
Sunshine Infusions,40.516188,-74.234013,"7001 Amboy Rd, Staten Island, NY 10307",Staten Island,Harbor Terrace,Home Health Care Service
Drucker Hypnosis Center,40.554168,-74.21808,"2483 Arthur Kill Rd, Staten Island, NY 10309",Staten Island,Chrome,Home Health Care Service
Designer Optical Outlet,40.591273,-74.163896,"2303 Richmond Ave (at Nome Abe), Staten Island, NY 10314",Staten Island,New Springville,Home Health Care Service
Weill Cornell Medical Associates East Side,40.77804,-73.953572,"215 E 85th St (btwn 2nd & 3rd Ave), New York, NY 10028",New York,Carnegie Hills,Home Health Care Service
Joan H. & Preston Robert Tisch Center at Essex Crossing,40.717237,-73.985582,"171 Delancey St, New York, NY 10002",New York,Downtown,Home Health Care Service
One Medical,40.71672,-74.009305,"25 Hudson St, New York, NY 10013",New York,City Hall Area,Home Health Care Service
Mount Sinai Doctors - East 34th Street,40.747544,-73.981966,"55 E 34th St (btwn Madison & Park Ave), New York, NY 10016",New York,East Side,Home Health Care Service
Bath Beach Medical PC,40.604981,-74.083046,"2071 Clove Rd, Staten Island, NY 10304",Staten Island,Concord,Home Health Care Service
Digestive Liver Disease Center,40.611434,-74.098817,"5 Little Clove Rd, Staten Island, NY 10301",Staten Island,Stapleton,Home Health Care Service
Staten Island Care Center,40.640052,-74.094646,"200 Lafayette Ave, Staten Island, NY 10301",Staten Island,New Brighton,Home Health Care Service
New Jersey for Balance and Rehab Center,40.65432,-74.202923,"216 Palmer St, Elizabeth, NJ 07202",Elizabeth,Mravlag Manor,Home Health Care Service
Zak Oksana Flatlands Dental Care Brooklyn,40.634304,-73.914195,"7806 Flatlands Ave, Brooklyn, NY 11236",Brooklyn,Georgetown,Home Health Care Service
Concept Sharpening / Steve's Sharpening Service,40.610448,-73.911905,"2248 E 59th Pl, New York, NY 11234",New York,Mill Island,Home Health Care Service
Ayam De Leon Pt Pc,40.713274,-73.791145,"172 Highland Ave, Jamaica, NY 11432",Jamaica,Jamaica Hills,Home Health Care Service
Healing Rays,40.728486,-73.810054,"7161 159th St, Fresh Meadows, NY 11365",Fresh Meadows,Pomonok,Home Health Care Service
Kesner Stuart,40.729391,-73.812618,"15402 71st Ave, Flushing, NY 11367",Flushing,Pomonok,Home Health Care Service
"Dr. Pet Daddy Veterinarian, PC",40.773825,-73.917228,"15 24TH Ave, Astoria, NY 11102",Astoria,Astoria,Home Health Care Service
Triboro Center,40.831685,-73.911669,"1160 Teller Ave, Bronx, NY 10456",Bronx,East Concourse,Home Health Care Service
Planned Parenthood - The Bronx Center,40.81673,-73.919723,"349 E 149th St (at Courtland), Bronx, NY 10451",Bronx,Melrose,Home Health Care Service
Morrisania D&Tc,40.836106,-73.920149,"1225 Gerard Ave, Bronx, NY 10452",Bronx,Concourse,Home Health Care Service
Morris Heights Health Center,40.85473,-73.910348,"85 W Burnside Ave, Bronx, NY 10453",Bronx,Morris Heights,Home Health Care Service
Weill Cornell Medical Associates,40.760613,-73.959454,"425 E 61st St (425 E 61st St), New York, NY 10065",New York,Lenox Hill,Home Health Care Service
Sutton Place Dental Associates,40.757252,-73.962076,"433 E 56th St, New York, NY 10022",New York,Midtown,Home Health Care Service
Tend,40.754545,-73.97643,"230 Park Ave, New York, NY 10169",New York,East Side,Home Health Care Service
NYU Medical Center Emergency Medicine,40.742141,-73.974243,"570 1st Ave (East 34 Street), New York, NY 10016",New York,East Side,Home Health Care Service
Mount Sinai Beth Israel,40.73283,-73.981713,"10 Nathan D Perlman Pl (btwn E 15th & E 16th St), New York, NY 10003",New York,East Village,Home Health Care Service
One Medical,40.739489,-73.996498,"114 W 17th St (6th Ave), New York, NY 10011",New York,Chelsea,Home Health Care Service
The Veterinarian At Co,40.746625,-73.941794,"2719 44th Dr (21st street), Long Island City, NY 11101",Long Island City,Hunters Point,Home Health Care Service
CityMD Sunnyside Urgent Care- Queens,40.742584,-73.917228,"4716 Greenpoint Ave, Sunnyside, NY 11104",Sunnyside,Dutch Kills,Home Health Care Service
Betances Health Center,40.713731,-73.983612,"280 Henry St (Montgomery St.), New York, NY 10002",New York,Downtown,Home Health Care Service
Geb Hetep Wholistic Center,40.677326,-73.945905,"1344 Pacific St, Brooklyn, NY 11216",Brooklyn,Crown Heights,Home Health Care Service
Advantage Care/ Emblem Health East New York,40.675403,-73.896469,"101 Pennsylvania Ave (Atlantic Avenue), New York, NY 11207",New York,Broadway Junction,Home Health Care Service
Brooklyn Dental Studio,40.694361,-73.991972,"185 Montague St (Clinton), Brooklyn, NY 11201",Brooklyn,Brooklyn Heights,Home Health Care Service
Quest Diagnostics,40.611185,-74.119104,"78 Todt Hill Rd, Staten Island, NY 10314",Staten Island,Castleton Corners,Home Health Care Service
Oral & Maxillofacial Surgery of Ocean Parkway,40.605545,-73.966409,"1777 Ocean Pkwy (at Kings Hwy), Brooklyn, NY 11223",Brooklyn,Gravesend,Home Health Care Service
Dr Francis J. Anello,40.725564,-73.877257,"8204 Caldwell Ave, Middle Village, NY 11379",Middle Village,Elmhurst,Home Health Care Service
Insomnia and Sleep Medicine,40.525686,-74.205433,"5947 Amboy Rd, Staten Island, NY 10309",Staten Island,Prince's Bay,Home Health Care Service
ProHEALTH Circle Urgent Care of Tottenville,40.516395,-74.234283,"7001 Amboy Rd (Page Avenue), Staten Island, NY 10307",Staten Island,Harbor Terrace,Home Health Care Service
BJ's Optical,40.783467,-73.830927,"13705 20th Ave, College Point, NY 11356",College Point,College Point,Home Health Care Service
"NYC Health + Hospitals/Gotham Health, East New York",40.671716,-73.895242,"2094 Pitkin Ave, Brooklyn, NY 11207",Brooklyn,Broadway Junction,Home Health Care Service
New York Community Hospital,40.613889,-73.948528,"2525 Kings Hwy, Brooklyn, NY 11229",Brooklyn,Manhattan Terrace,Home Health Care Service
CityMD Pelham Parkway Urgent Care - Bronx,40.855905,-73.867452,"Parkway 2178 White Plains Rd, Bronx, NY 10462",Bronx,Bronxdale,Home Health Care Service
Cuomo Family Chiropractic Center,40.856519,-73.856269,"2143 Williamsbridge Rd, Bronx, NY 10461",Bronx,Allerton,Home Health Care Service
University Nursing Home,40.864838,-73.901929,"2505 Grand Ave, Bronx, NY 10468",Bronx,Fordham,Home Health Care Service
University Orthopaedic Associates - Downstate Medical Center,40.656186,-73.948364,"760 Parkside Ave, Brooklyn, NY 11226",Brooklyn,Prospect,Home Health Care Service
Ayla Yavin Acupuncture & Herbs,40.747344,-73.991348,"135 W 29th St (7th and 6th Aves), New York, NY 10001",New York,Chelsea,Home Health Care Service
Beach Ny Physical Ther,40.587227,-73.811108,"8611 Rockaway Beach Blvd, Rockaway Beach, NY 11693",Queens,Hammels,Home Health Care Service
North Shore University Hospital,40.601455,-73.763989,"821 Bay 25th St, Far Rockaway, NY 11691",Far Rockaway,Bayswater,Home Health Care Service
The Animal Medical Center,40.76022,-73.958041,"510 E 62nd St (at York Ave.), New York, NY 10065",New York,Midtown,Home Health Care Service
Sunrise of Staten Island,40.611374,-74.0952,"801 Narrows Rd N, Staten Island, NY 10304",Staten Island,Fox Hills,Home Health Care Service
Innervision Sonograph,40.891616,-73.84673,"4064 Bruner Ave, Bronx, NY 10466",Bronx,Edenwald,Doctor's Office
Quality Control Optics,40.892631,-73.855572,"754 E 233rd St, Bronx, NY 10466",Bronx,Williamsbridge,Doctor's Office
Miah Nazma DDS,40.863608,-73.822163,"120 Elgar Pl, Bronx, NY 10475",Bronx,Hillside,Doctor's Office
Pourrat Monahemi,40.825242,-73.820423,"3795 E Tremont Ave, Bronx, NY 10465",Bronx,Schuvilerville,Doctor's Office
Dr Vando Medical Services,40.894114,-73.858824,"657 E 233rd St, Bronx, NY 10466",Bronx,Williamsbridge,Doctor's Office
Step Into Stride Physical Therapy,40.627323,-74.023234,"7725 5th Ave, Brooklyn, NY 11209",Brooklyn,Bayridge,Doctor's Office
JAG-ONE Physical Therapy,40.59961,-73.996613,"8718 Bay Pkwy, Brooklyn, NY 11214",Brooklyn,Bath Beach,Doctor's Office
NYU Lutheran Family Health Centers Family Support Center,40.637543,-74.014012,"6025 6th Ave, Brooklyn, NY 11220",Brooklyn,Bayridge,Doctor's Office
Sephardic Bikur Holim,40.604621,-73.97469,"425 Kings Hwy, Brooklyn, NY 11223",Brooklyn,Bensonhurst,Doctor's Office
Quality Laboratory Service,40.592551,-73.950495,"2818 Ocean Ave, Brooklyn, NY 11235",Brooklyn,Sheepshead Bay,Doctor's Office
ModernMD Urgent Care - S.E. Williamsburg,40.703406,-73.942367,"68 Graham Ave (Varet Street), Brooklyn, NY 11206",Brooklyn,East Williasburg,Doctor's Office
Franco's Optical Inc.,40.681662,-73.879782,"391 Arlington Ave, Brooklyn, NY 11208",Brooklyn,Cypres Hills,Doctor's Office
Dynamic Dental Work,40.618547,-73.909117,"6820 Avenue U, Brooklyn, NY 11234",Brooklyn,Georgetown,Doctor's Office
Care RX Pharmacy,40.610153,-73.999074,"8011 18th Ave, Brooklyn, NY 11214",Brooklyn,New Utrecht,Doctor's Office
Oral And Maxillofacial Surgery Dr Wolfersberger,40.626572,-74.019195,"655 76th St, Brooklyn, NY 11209",Brooklyn,Bayridge,Doctor's Office
Family Smile Dental,40.598948,-73.937289,"3029 Avenue V (Ford Street & Coyle Street), Brooklyn, NY 11229",Brooklyn,Gerritsen,Doctor's Office
Your Optical,40.578577,-73.975983,"2849 W 8th St, Brooklyn, NY 11224",Brooklyn,Coney Island,Doctor's Office
Zak Oksana Flatlands Dental Care Brooklyn,40.634304,-73.914195,"7806 Flatlands Ave, Brooklyn, NY 11236",Brooklyn,Georgetown,Doctor's Office
Dr Koutelos,40.620473,-74.023526,"8501 Fort Hamilton Pkwy, Brooklyn, NY 11209",Brooklyn,Bayridge,Doctor's Office
West End Dental Associates,40.779352,-73.98509,"243 W End Ave (71st at West End), New York, NY 10023",New York,Lincoln Square,Doctor's Office
Worth Street Veterinary Center,40.716911,-74.00556,"77 Worth St (btwn. Church and Broadway), New York, NY 10013",New York,City Hall Area,Doctor's Office
Harlem VistaSite Eye Care,40.806101,-73.953953,"2204 Frederick Douglass Blvd, New York, NY 10026",New York,Central Harlem,Doctor's Office
"LIC Optometry, PC",40.767376,-73.938612,"3250 Vernon Blvd (Broadway), Long Island City, NY 11106",Long Island City,Astoria South,Doctor's Office
Charles B Wang Community Health Care,40.761519,-73.830358,"13626 37th Ave (37th Avenue & Main St), Flushing, NY 11354",Flushing,Down Town Flushing,Doctor's Office
Juniper Valley Animal Hospital,40.715936,-73.88659,"6308 69th Pl (Penelope Ave), Middle Village, NY 11379",Middle Village,Fresh Pond Junction,Doctor's Office
Advantagecare Physicians,40.710904,-73.856207,"9610 Metropolitan Ave, Forest Hills, NY 11375",Forest Hills,Parkside,Doctor's Office
Forest Hills Hospital,40.728927,-73.851626,"10201 66th Rd, Forest Hills, NY 11375",Forest Hills,Forest Hills,Doctor's Office
Woodhaven Braces,40.693317,-73.852426,"8708 Woodhaven Blvd (Jamicia Ave.), Woodhaven, NY 11421",Woodhaven,Brooklyn Manor,Doctor's Office
Cross Island Chiropractic Center,40.794101,-73.818239,"708 149th St, Queens, NY 11357",Queens,Beechhurst,Doctor's Office
Mhra Of NYC,40.704915,-73.799708,"9040 160th St, Jamaica, NY 11432",Jamaica,Jamaica,Doctor's Office
Bell Dental Care,40.763021,-73.769127,"21435 42nd Ave, Bayside, NY 11361",Bayside,Bayside,Doctor's Office
Rockaway Dental Center,40.587374,-73.811679,"8609 Rockaway Beach Blvd, Far Rockaway, NY 11693",Far Rockaway,Hammels,Doctor's Office
"Kakossian, Irene Dr - K and K Obgyn and Cosmetics",40.577108,-73.954603,"1180 Brighton Beach Ave, Brooklyn, NY 11235",Brooklyn,Brighton Beach,Doctor's Office
North Shore University Hospital,40.601455,-73.763989,"821 Bay 25th St, Far Rockaway, NY 11691",Far Rockaway,Bayswater,Doctor's Office
Doctors of The World,40.584239,-73.822664,"230 Beach 102nd St, Queens, NY 11694",Queens,Seaside,Doctor's Office
Queens Long Island,40.713289,-73.78207,"18005 Hillside Ave, Jamaica, NY 11432",Jamaica,Hillside,Doctor's Office
Med-One Care,40.679651,-73.752034,"21714 Merrick Blvd, Laurelton, NY 11413",Laurelton,Laurelton,Doctor's Office
Peds 4 Kids,40.727328,-73.863353,"6395 Austin St, Rego Park, NY 11374",Rego Park,Forest Hills,Doctor's Office
Universal Physical Therapy,40.587647,-73.811558,"8624 Rockaway Beach Blvd, Rockaway Beach, NY 11693",Rockaway Beach,Hammels,Doctor's Office
Junction Dental Care,40.748777,-73.874488,"9203 Roosevelt Ave, Jackson Heights, NY 11372",Jackson Heights,Elmhurst,Doctor's Office
Visiting Nurse Congregate Care Site,40.642266,-74.096394,"125 Cassidy Pl, Staten Island, NY 10301",Staten Island,New Brighton,Doctor's Office
Silver Lake Nursing Home,40.633657,-74.092115,"275 Castleton Ave, Staten Island, NY 10301",Staten Island,Port Johnson,Doctor's Office
Value Dental of Elizabeth,40.650716,-74.195223,"324 Elizabeth Ave, Elizabeth, NJ 07206",Elizabeth,Mravlag Manor,Doctor's Office
Designer Optical Outlet,40.591273,-74.163896,"2303 Richmond Ave (at Nome Abe), Staten Island, NY 10314",Staten Island,New Springville,Doctor's Office
Staten Island Aids Task Force,40.642101,-74.077255,"25 Hyatt St, Staten Island, NY 10301",Staten Island,Brighton Heights,Doctor's Office
Doshi Diagnostics,40.648818,-73.943767,"1014 Brooklyn Ave (btwn Tilden & Snyder Ave.), Brooklyn, NY 11203",Brooklyn,East Flatbush,Doctor's Office
My Fat Loss Expert,40.591328,-74.101291,"1567 Richmond Rd, Staten Island, NY 10304",Staten Island,Dongan Hills,Doctor's Office
Visions By Victoria Rose,40.547309,-74.222519,"639 Veterans Rd W, Staten Island, NY 10309",Staten Island,Rossville,Doctor's Office
Richmond Medical Associates PC,40.547312,-74.166665,"7 Petrus Ave, Staten Island, NY 10312",Staten Island,Annadale,Doctor's Office
Elite Car Care,40.598327,-74.180834,"3735 Victory Blvd, Staten Island, NY 10314",Staten Island,Chelsea,Doctor's Office
Victory Veterinary Practice,40.588362,-74.195771,"4316 Victory Blvd, Staten Island, NY 10314",Staten Island,Chelsea,Doctor's Office
Dorothy B Hersh Clinic,40.659154,-74.197946,"655 E Jersey St, Elizabeth, NJ 07206",Elizabeth,Mravlag Manor,Doctor's Office
Golden Gate Rehabilitation,40.606844,-74.131639,"191 Bradley Ave, Staten Island, NY 10314",Staten Island,Meiers Corners,Doctor's Office
Independent Living Associates,40.548877,-74.216759,"89 Lucille Ave, Staten Island, NY 10309",Staten Island,Rossville,Doctor's Office
Kiss Alex-Harbor Care Home Health,40.585015,-73.930752,"3900 Shore Pkwy, Brooklyn, NY 11235",Brooklyn,Plum Beach,Doctor's Office
Ascona Ambulette Services,40.589645,-73.956913,"1260 Avenue Y, Brooklyn, NY 11235",Brooklyn,Gravesend,Doctor's Office
Quest Diagnostics,40.516287,-74.234279,"7001 Amboy Rd, Staten Island, NY 10307",Staten Island,Harbor Terrace,Doctor's Office
Target Optical,40.783675,-73.833338,"13505 20th Ave, College Point, NY 11356",College Point,College Point,Doctor's Office
West Side Gi,40.769081,-73.993689,"619 W 54th St (11th Ave.), New York, NY 10019",New York,Clinton,Doctor's Office
Bay Plaza Chiropractic Health Group,40.867257,-73.825227,"2100 Bartow Ave (Bay Plaza Shopping Center), Bronx, NY 10475",Bronx,Coop City,Hospital
City Smiles Center - Frederick W Mitchell DDS,40.869834,-73.82799,"2063B Bartow Ave, Bronx, NY 10475",Bronx,Coop City,Hospital
Unlimited Care,40.85211,-73.828142,"3250 Westchester Ave, Bronx, NY 10461",Bronx,Westchester,Hospital
Medical & Dental Office,40.828445,-73.876594,"1163 Manor Ave (Westcher Avenue), Bronx, NY 10472",Bronx,Longwood,Hospital
Teperman Sheldon MD,40.84604,-73.845779,"1575 Blondell Ave, Bronx, NY 10461",Bronx,Westchester,Hospital
McLean Family Practice,40.90942,-73.879322,"626 McLean Ave, Yonkers, NY 10705",Yonkers,Lincoln,Hospital
"William E Guerrero, OD - William E Guerrero PC",40.826393,-73.82219,"3730 E Tremont Ave, Bronx, NY 10465",Bronx,Schuvilerville,Hospital
Tek Dental,40.630811,-74.025726,"370 Bay Ridge Pkwy, Brooklyn, NY 11209",Brooklyn,Bayridge,Hospital
Park Slope Veterinary Center,40.663567,-73.994424,"639 4th Ave (19th), Brooklyn, NY 11232",Brooklyn,Gowanus,Hospital
Grega Renato C,40.678344,-73.86854,"1098 Liberty Ave, Brooklyn, NY 11208",Brooklyn,City Line,Hospital
Irina Berlin Medical PC,40.575991,-73.970095,"3080 W 1st St, Brooklyn, NY 11224",Brooklyn,Brighton Beach,Hospital
Eschen Albert H Optometrist,40.600401,-73.943352,"2821 Avenue U, Brooklyn, NY 11229",Brooklyn,Sheepshead Bay,Hospital
My Optician Eye Care Centers,40.578577,-73.975983,"2849 W 8th St, Brooklyn, NY 11224",Brooklyn,Coney Island,Hospital
Woodhaven-Richmond Hill Volunteer Ambulance Corps,40.691994,-73.863937,"7815 Jamaica Ave (78 St), Woodhaven, NY 11421",Woodhaven,Woodhaven,Hospital
Oral & Maxillofacial Surgery of Ocean Parkway,40.605545,-73.966409,"1777 Ocean Pkwy (at Kings Hwy), Brooklyn, NY 11223",Brooklyn,Gravesend,Hospital
Morgan Stanley Children's Hospital,40.839697,-73.941596,"3959 Broadway (at W 165th St), New York, NY 10032",New York,Uptown,Hospital
Cardiac Cath Lab,40.805363,-73.961359,"1111 Amsterdam Ave, New York, NY 10025",New York,Harlem,Hospital
Weill Cornell Medical Associates East Side,40.77804,-73.953572,"215 E 85th St (btwn 2nd & 3rd Ave), New York, NY 10028",New York,Carnegie Hills,Hospital
Elmhurst Hospital Center Clinics,40.745974,-73.884735,"7901 Broadway, Elmhurst, NY 11373",Elmhurst,Elmhurst,Hospital
Mandarin Optical,40.740724,-73.879213,"8327 Broadway, Elmhurst, NY 11373",Elmhurst,Elmhurst,Hospital
Cucchiara Family Dentistry,40.667669,-73.84792,"15120 88th St, Howard Beach, NY 11414",Howard Beach,Lidenwood,Hospital
Nektalov Family Chirop,40.721948,-73.842032,"10850 71st Ave, Forest Hills, NY 11375",Forest Hills,Forest Hills,Hospital
NY Lasergroup,40.694389,-73.827602,"11915 Atlantic Ave, Richmond Hill, NY 11418",Richmond Hill,Richmond Hill,Hospital
The Dermatology Specialists - Long Island City,40.745341,-73.951483,"1041 47th Ave, Long Island City, NY 11101",Queens,Hunters Point,Hospital
A Animal Clinic of Queens,40.709355,-73.899001,"6512 Fresh Pond Rd (Gates ave), Ridgewood, NY 11385",Ridgewood,Fresh Pond,Hospital
Novel MD,40.724742,-73.854965,"9830 67th Ave, Rego Park, NY 11374",Rego Park,Forest Hills,Hospital
The Smilist Dental,40.768874,-73.835995,"13336 Whitestone Expy, Flushing, NY 11354",Flushing,Down Town Flushing,Hospital
Bell Dental Care,40.763021,-73.769127,"21435 42nd Ave, Bayside, NY 11361",Bayside,Bayside,Hospital
New York Hospital Medical,40.757285,-73.782642,"20012 44th Ave, Bayside, NY 11361",Bayside,Auburndale,Hospital
Long Island Bird & Exotics Veterinary Clinic,40.779262,-73.732461,"333 Great Neck Rd, Great Neck, NY 11021",Great Neck,Little Neck,Hospital
Division of Vascular/Interventional Radiology at Long Island Jewish Medical Center,40.754765,-73.708533,"27005 76th Ave (North Shore-LIJ Health System), New Hyde Park, NY 11040",New Hyde Park,Glen Oaks,Hospital
Guarnaccia Gary J MD PC,40.71874,-73.836766,"11203 Queens Blvd, Forest Hills, NY 11375",Forest Hills,Forest Hills,Hospital
Metro Eye Md,40.744297,-73.775728,"5847 Francis Lewis Blvd, Oakland Gardens, NY 11364",Oakland Gardens,Fresh Meadows,Hospital
Saint Vincents Catholic Medical Centers of New York,40.700632,-73.806974,"14720 Archer Ave, Jamaica, NY 11435",Jamaica,Jamaica,Hospital
Home Care At Its Best,40.720294,-73.732783,"22121 Jamaica Ave, Queens Village, NY 11428",Queens Village,Bellaire,Hospital
GBB Wellness,40.67085,-73.774096,"13742 Guy R Brewer Blvd (140th Ave), Jamaica, NY 11434",Jamaica,Locust Manor,Hospital
Queens Long Island Dental Care,40.661622,-73.709926,"260 W Sunrise Hwy, Valley Stream, NY 11581",Valley Stream,Rosedale,Hospital
Beach Ny Physical Ther,40.587227,-73.811108,"8611 Rockaway Beach Blvd, Rockaway Beach, NY 11693",Queens,Hammels,Hospital
Revitta. Cosmetic dentistry,40.578603,-73.95305,"133A W End Ave, Brooklyn, NY 11235",Brooklyn,Brighton Beach,Hospital
North Shore Lij Health System,40.601672,-73.76391,"821 Bay 25th St, Far Rockaway, NY 11691",Far Rockaway,Bayswater,Hospital
A to Z Acupuncture,40.585187,-73.823481,"334 Beach 102nd St, Rockaway Park, NY 11694",Rockaway Park,Seaside,Hospital
Shrock Peter MD,40.752749,-73.707155,"26901 76th Ave, New Hyde Park, NY 11040",New Hyde Park,Glen Oaks,Hospital
Prestige Dental Care,40.753597,-73.823697,"4370 Kissena Blvd, Flushing, NY 11355",Flushing,Flushing,Hospital
"Mirkin, Daniel OD - Mirkin Vision",40.580615,-73.837939,"253 Beach 116th St (Newport Ave), Rockaway Park, NY 11694",Rockaway Park,Boardwalk,Hospital
Queens Li Medical Group,40.672826,-73.770546,"16959 137th Ave, Jamaica, NY 11434",Jamaica,Locust Manor,Hospital
Sunrise Medical Labs,40.717414,-73.740191,"21517 Jamaica Ave, Queens Village, NY 11428",Queens Village,Cambria Heights,Hospital
"Arelys Santana, DDS - D and S DENTAL",40.750126,-73.876547,"3717 90th St, Jackson Heights, NY 11372",Jackson Heights,Elmhurst,Hospital
Best Care,40.640575,-74.075928,"60 Bay St, Staten Island, NY 10301",Staten Island,Brighton Heights,Hospital
Richmond University Medical Center,40.636133,-74.107557,"800 Castleton Ave, Staten Island, NY 10310",Staten Island,Randall Manor,Hospital
JAG-ONE Physical Therapy,40.625991,-74.13467,"1351 Forest Ave, Staten Island, NY 10302",Staten Island,Westerleigh,Hospital
University Physicians Group,40.613814,-74.111853,"1460 Victory Blvd, Staten Island, NY 10301",Staten Island,Castleton Corners,Hospital
Elite Car Care,40.598327,-74.180834,"3735 Victory Blvd, Staten Island, NY 10314",Staten Island,Chelsea,Hospital
Consultants In Urologoy,40.539041,-74.14913,"4143 Hylan Blvd, Staten Island, NY 10308",Staten Island,Great Kills,Hospital
Weight Watchers,40.540256,-74.17058,"Richmond Ave, Staten Island, NY 10312",Staten Island,Annadale,Hospital
Derm One,40.505515,-74.263878,"1 Market St, Perth Amboy, NJ 08861",Perth Amboy,Harbor Terrace,Hospital
Life Works,40.54348,-74.144448,"3932 Hylan Blvd, Staten Island, NY 10308",Staten Island,Great Kills,Hospital
Insomnia and Sleep Medicine,40.525686,-74.205433,"5947 Amboy Rd, Staten Island, NY 10309",Staten Island,Prince's Bay,Hospital
Staten Island Spine and Joint Rehabilitation Center,40.510341,-74.242534,"7378 Amboy Rd, Staten Island, NY 10307",Staten Island,Tottenville,Hospital
The Clinic At Country Estate,40.524177,-74.238673,"4838 Arthur Kill Rd, New York, NY 10309",New York,Richmond Valley,Hospital
Victory Veterinary Practice,40.588362,-74.195771,"4316 Victory Blvd, Staten Island, NY 10314",Staten Island,Chelsea,Hospital
Lymphedema Management Associates of Staten Island,40.574525,-74.116977,"97 New Dorp Ln, Staten Island, NY 10306",Staten Island,New Dorp,Hospital
Four Seasons Nursing & Rehabilitation Center,40.642782,-73.899176,"1555 Rockaway Pkwy, Brooklyn, NY 11236",Brooklyn,Canarsie,Hospital
JAG-ONE Physical Therapy,40.608545,-73.924765,"4013 Avenue U (Coleman), Brooklyn, NY 11234",Brooklyn,Mill Island,Hospital
Kesner Stuart,40.729391,-73.812618,"15402 71st Ave, Flushing, NY 11367",Flushing,Pomonok,Hospital
Lenox Hill Radiology,40.770202,-73.919538,"2916 Astoria Blvd, New York, NY 11102",New York,Astoria,Hospital
Jasper Hall,40.82389,-73.914394,"863 Melrose Ave, Bronx, NY 10451",Bronx,Melrose,Hospital
City Central Dermatology,40.745864,-73.890975,"4037 74th St (74th Street), Elmhurst, NY 11373",Elmhurst,Elmhurst,Hospital
"NYC Health + Hospitals/Gotham Health, East New York",40.671716,-73.895242,"2094 Pitkin Ave, Brooklyn, NY 11207",Brooklyn,Broadway Junction,Hospital
Drucker Hypnosis Center,40.554168,-74.21808,"2483 Arthur Kill Rd, Staten Island, NY 10309",Staten Island,Chrome,Hospital
Tirado Miguel Richmond Primary Care,40.518836,-74.196699,"305 Seguine Ave, Staten Island, NY 10309",Staten Island,Prince's Bay,Hospital
Matteo Chiropractic & Physical Therapy and DOT Physicals,40.778445,-73.839442,"12910 23rd Ave (23rd Ave and 130th st.), College Point, NY 11356",College Point,College Point,Hospital
Ditmas Park Care Center,40.640146,-73.957728,"2107 Ditmas Ave, Brooklyn, NY 11226",Brooklyn,Flatbush,Hospital
Callen-Lorde Community Health Center,40.743086,-74.003103,"356 W 18th St (btw 8th & 9th), New York, NY 10011",New York,Chelsea,Hospital
Transitional Svces for New York of The Rockaways,40.6054,-73.754853,"1308 Beach Channel Dr, Far Rockaway, NY 11691",Far Rockaway,Far Rockaway,Hospital
Montefiore Medical Center,40.894326,-73.861066,"600 E 233rd St (Carpenter Ave.), Bronx, NY 10466",Bronx,Williamsbridge,Hospital
Broadway Eye Care,40.869732,-73.827723,"2075 Bartow Ave, Bronx, NY 10475",Bronx,Coop City,Hospital
The Hebrew Home For The Aged At Riverdale,40.909988,-73.909274,"5901 Palisade Ave (at Ny Orphan Aym Rd), Bronx, NY 10471",Bronx,Fildston,Hospital
"Friedman, Joel M, DDS - Riverdale Oral Surgery",40.885365,-73.914524,"3333 Henry Hudson Pkwy W, Bronx, NY 10463",Bronx,Spuyten Duyvil,Hospital
Beth Abraham,40.903082,-73.848505,"740 Cranford Ave, Bronx, NY 10470",Bronx,Wakefield,Hospital
Pediatric Dentistry of Bronx,40.876978,-73.886049,"3201 Grand Concourse, Bronx, NY 10468",Bronx,Norwood,Hospital
Montefiore Medical Group - Bay Plaza,40.868088,-73.824425,"2100 Bartow Ave, Bronx, NY 10475",Bronx,Coop City,Hospital
Industrial Medicine Associates,40.852053,-73.828271,"3250 Westchester Ave (@ St. Paul Ave), Bronx, NY 10461",Bronx,Westchester,Hospital
American Dental Centers,40.863349,-73.896882,"2535 Grand Concourse, Bronx, NY 10468",Bronx,Fordham,Hospital
21 Avenue Animal Clinic PC,40.782063,-73.913911,"2127 21st Ave, Astoria, NY 11105",Astoria,Astoria,Hospital
Bronx Medical Care Assoc PC,40.832337,-73.851451,"1217 Castle Hill Ave, Bronx, NY 10462",Bronx,Parkchester,Hospital
UrgentWay Bronx,40.844308,-73.835432,"2826 Westchester Ave, Bronx, NY 10461",Bronx,Westchester,Hospital
Luis E Guerrero,40.830401,-73.865773,"1216 Beach Ave, Bronx, NY 10472",Bronx,Parkchester,Hospital
Calvary Hospital,40.847922,-73.844009,"1740 Eastchester Rd, Bronx, NY 10461",Bronx,Westchester,Hospital
Montefiore Medical Group,40.877646,-73.905956,"5525 Broadway, Bronx, NY 10463",Bronx,Kings Bridge,Hospital
Riverdale Dental P.C.,40.889779,-73.911098,"611 W 239th St, Bronx, NY 10463",Bronx,Kingsbridge,Hospital
Pourrat Monahemi,40.825242,-73.820423,"3795 E Tremont Ave, Bronx, NY 10465",Bronx,Schuvilerville,Hospital
Cuomo Family Chiropractic Center,40.856519,-73.856269,"2143 Williamsbridge Rd, Bronx, NY 10461",Bronx,Allerton,Hospital
Motion Sports Medicine,40.852918,-73.838763,"1250 Waters Pl, Bronx, NY 10461",Bronx,Westchester,Hospital
FDNY EMS Station 26,40.830627,-73.900561,"1264 Boston Rd, Bronx, NY 10456",Bronx,Morrisania,Hospital
Our Lady of Mercy Dnt Clinic,40.895479,-73.860363,"4234 Bronx Blvd, Bronx, NY 10466",Bronx,Williamsbridge,Hospital
Pearly Whites Pediatric Dentist,40.630462,-74.02471,"Bayridge Parkway, Brooklyn, NY 11220",Brooklyn,Bayridge,Hospital
TRi Physical Therapy of Brooklyn,40.601592,-73.961205,"2279 Coney Island Ave, Brooklyn, NY 11223",Brooklyn,Gravesend,Hospital
Sheepshead Nursing and Rehabilitation Center,40.585259,-73.931675,"2840 Knapp St, Brooklyn, NY 11235",Brooklyn,Plum Beach,Hospital
"COVID-19 Walk-In Testing Center, Gotham Health",40.627885,-73.965561,"1223 Coney Island Ave, Brooklyn, NY 11230",Brooklyn,Fiske Terrace,Hospital
Maimonides Medical Center,40.639533,-73.99836,"4802 10th Ave (at W 48th St.), Brooklyn, NY 11219",Brooklyn,Kensington,Hospital
One Medical,40.674642,-73.976171,"794 Union St, Brooklyn, NY 11215",Brooklyn,Park Slope,Hospital
Interfaith Medical Center,40.678147,-73.937345,"1545 Atlantic Ave (Troy Ave), Brooklyn, NY 11213",Brooklyn,Bedford,Hospital
CityMD Boerum Hill Urgent Care - Brooklyn,40.686162,-73.982184,"457 Atlantic Ave (Nevins Street), New York, NY 11217",New York,Boerum Hill,Hospital
Dental Care of Cobble Hill,40.679825,-73.999164,"62 2nd Pl, Brooklyn, NY 11231",Brooklyn,Carroll Gardens,Hospital
Methodist Hospital Emergency Room,40.668216,-73.980001,"506 6th St, Brooklyn, NY 11215",Brooklyn,Park Slope,Hospital
Tend,40.681639,-73.975464,"215 Flatbush Ave (at Dean St), Brooklyn, NY 11217",Brooklyn,Fort Greene,Hospital
Zak Oksana Flatlands Dental Care Brooklyn,40.634304,-73.914195,"7806 Flatlands Ave, Brooklyn, NY 11236",Brooklyn,Georgetown,Hospital
At Home Solutions,40.579923,-73.958019,"120 Brighton 11th St, Brooklyn, NY 11235",Brooklyn,Brighton Beach,Hospital
Dolphin Dental PC,40.581055,-73.967985,"2844 Ocean Pkwy, Brooklyn, NY 11235",Brooklyn,Home Crest,Hospital
Andre J Singer DDS,40.612984,-74.000527,"7810 17th Ave, Brooklyn, NY 11214",Brooklyn,New Utrecht,Hospital
Step Into Stride Physical Therapy,40.627323,-74.023234,"7725 5th Ave, Brooklyn, NY 11209",Brooklyn,Bayridge,Hospital
JAG-ONE Physical Therapy,40.59961,-73.996613,"8718 Bay Pkwy, Brooklyn, NY 11214",Brooklyn,Bath Beach,Hospital
BluePearl Pet Hospital,40.680495,-73.984405,"190 3rd Ave, Brooklyn, NY 11217",Brooklyn,Boerum Hill,Hospital
Concept Sharpening / Steve's Sharpening Service,40.610448,-73.911905,"2248 E 59th Pl, New York, NY 11234",New York,Mill Island,Hospital
Best Medical,40.610662,-73.958377,"1599 E 15th St, Brooklyn, NY 11230",Brooklyn,Manhattan Terrace,Hospital
Animal Clinic of Bay Ridge,40.61922,-74.022082,"689 86th St, Brooklyn, NY 11228",Brooklyn,Fort Hamilton,Hospital
Substance Treatment & Research,40.841072,-73.940115,"600 W 168th St, New York, NY 10032",New York,Uptown,Hospital
Edward S. Harkness Eye Institute,40.840266,-73.942536,"635 W 165th St (at Fort Washington Ave), New York, NY 10032",New York,Uptown,Hospital
Henry J. Carter Specialty Hospital & Nursing Facility,40.803045,-73.941024,"1752 Park Ave (at 122nd St), New York, NY 10035",New York,Central Harlem,Hospital
Zuckerman Research Center,40.765216,-73.956835,"410 E 69th St, New York, NY 10021",New York,Lenox Hill,Hospital
Pediatric & Adolescent Medicine,40.78383,-73.9812,"390 W End Ave (78th St.), New York, NY 10024",New York,Lincoln Square,Hospital
Central Park South Ob/Gyn,40.766974,-73.979798,"210 Central Park S (7th Ave), New York, NY 10019",New York,Midtown,Hospital
West 11th Street Pediatrics: Ferrier Genevieve MD,40.734895,-73.996797,"46 W 11th St (btwn 5th & 6th), New York, NY 10011",New York,Downtown,Hospital
Worth Street Veterinary Center,40.716911,-74.00556,"77 Worth St (btwn. Church and Broadway), New York, NY 10013",New York,City Hall Area,Hospital
Boro Dental Arts,40.749315,-73.936,"29-22 Northern Blvd, New York, NY 11101",New York,Long Island City,Hospital
Forest Hills Hospital,40.728927,-73.851626,"10201 66th Rd, Forest Hills, NY 11375",Forest Hills,Forest Hills,Hospital
Asian American Mental Health Institute,40.76012,-73.83022,"3901 Main St, Flushing, NY 11354",Flushing,Down Town Flushing,Hospital
New York Presbyterian Hospital Weill Cornell Medical Center,40.764536,-73.954013,"525 E 68th St (at York Ave), New York, NY 10065",New York,Lenox Hill,Hospital
Leaf Medical,40.744676,-73.952156,"1029 47th Rd (Vernon Blvd), Long Island City, NY 11101",Queens,Hunters Point,Hospital
COVID-19 Vaccine Hub Site: Mass Vaccination Site - Citi Field,40.757649,-73.844605,"41 Seaver Way, New York, NY 11368",New York,North Corona,Hospital
American Dental Center,40.736217,-73.878261,"8710 Grand Ave (Queens blvd), Elmhurst, NY 11373",Elmhurst,Elmhurst,Hospital
"Bayside Physical Therapy, Chiropractic & Acupuncture",40.771244,-73.774697,"21315 33rd Rd, Bayside, NY 11361",Bayside,Bayside,Hospital
Queens Village Dental,40.719217,-73.732747,"22110 Jamaica Ave, Queens Village, NY 11428",Queens Village,Bellaire,Hospital
Medex Healthcare Multispecialty Center,40.719039,-73.837737,"11129 Queens Blvd, Forest Hills, NY 11375",Forest Hills,Forest Hills,Hospital
21 Century Cosmetic Dentistry,40.710316,-73.794325,"16819 Hillside Ave, Jamaica, NY 11432",Jamaica,Jamaica Hills,Hospital
Cazazian Abram DDS PC,40.76232,-73.772155,"4203 212th St, Bayside, NY 11361",Bayside,Bayside,Hospital
Krg Medical PC,40.717532,-73.739759,"21533 Jamaica Ave, Queens Village, NY 11428",Queens Village,Cambria Heights,Hospital
Medisys Health Network,40.693844,-73.781349,"11120 Merrick Blvd, Jamaica, NY 11433",Jamaica,St. Albans,Hospital
Lifespire Springfield Gardens,40.676598,-73.751275,"13604 220th St, Laurelton, NY 11413",Laurelton,Laurelton,Hospital
Bellerose Rescue,40.707027,-73.741583,"Braddock Ave, Bellerose, NY 11426",Bellerose,Cambria Heights,Hospital
Surfside Manor,40.585769,-73.817584,"9502 Rockaway Beach Blvd, Rockaway Beach, NY 11693",Queens,Holland,Hospital
Vitastat Medical,40.764048,-73.929834,"2322 Broadway (Between 23rd St and Crescent St), Astoria, NY 11106",Astoria,Astoria South,Hospital
Gary B Feldman DPM-Flushing,40.771446,-73.802971,"16101 29th Ave, Flushing, NY 11358",Flushing,Auburndale,Hospital
Rock Pharmacy & Surgical,40.587325,-73.813592,"8818 Rockaway Beach Blvd, Rockaway Beach, NY 11693",Rockaway Beach,Hammels,Hospital
Adaptive Phys Education,40.586335,-73.822783,"10000 Beach Channel Dr, Rockaway Park, NY 11694",Rockaway Park,Seaside,Hospital
Chapin Home for the Aging,40.714583,-73.801183,"16501 Chapin Pkwy, Queens, NY 11432",Queens,Jamaica Hills,Hospital
South Shore Opticians,40.661858,-73.720001,"1033 Green Acres Mall, Valley Stream, NY 11581",Valley Stream,Rosedale,Hospital
Gil Dechavez DDS - G Smile Dental,40.735859,-73.875453,"8812 55th Ave, Elmhurst, NY 11373",Elmhurst,Elmhurst,Hospital
Mirkin Vision Care,40.580615,-73.837939,"253 Beach 116th St, Rockaway Park, NY 11694",Rockaway Park,Boardwalk,Hospital
Med-One Care,40.679651,-73.752034,"21714 Merrick Blvd, Laurelton, NY 11413",Laurelton,Laurelton,Hospital
Staten Island Aids Task Force,40.642101,-74.077255,"25 Hyatt St, Staten Island, NY 10301",Staten Island,Brighton Heights,Hospital
Beacon Of Hope House,40.588347,-74.096204,"90 Hancock St, Staten Island, NY 10305",Staten Island,Grand City,Hospital
Richmond Radiology PC,40.598331,-74.161935,"2025 Richmond Ave, Staten Island, NY 10314",Staten Island,Willowbrook,Hospital
Richmond Medical Associates PC,40.547312,-74.166665,"7 Petrus Ave, Staten Island, NY 10312",Staten Island,Annadale,Hospital
Comprehensive Pediatrics PC,40.526425,-74.17242,"4982 Hylan Blvd, Staten Island, NY 10312",Staten Island,Huguenot,Hospital
Quest Diagnostics,40.516287,-74.234279,"7001 Amboy Rd, Staten Island, NY 10307",Staten Island,Harbor Terrace,Hospital
Rumc Dr Gessman,40.616257,-74.103548,"1161 Victory Blvd (Clove Rd.), Staten Island, NY 10301",Staten Island,Fox Hills,Hospital
The Dermatology Specialists - Crown Heights,40.669346,-73.947997,"614 Eastern Pkwy, Brooklyn, NY 11225",Brooklyn,Crown Heights,Hospital
SIUH Heart Tower,40.585102,-74.085187,"242 Mason Ave, Staten Island, NY 10305",Staten Island,Midland Beach,Hospital
Staten Island Oral and Maxillofacial Surgery,40.586213,-74.085885,"256 Mason Ave, Staten Island, NY 10305",Staten Island,Midland Beach,Hospital
Sleep Disorder Center Of Staten Island,40.583531,-74.085514,"501 Seaview Ave, Staten Island, NY 10305",Staten Island,Midland Beach,Hospital
Best You Can Be,40.559684,-74.151968,"134 Barlow Ave, Staten Island, NY 10308",Staten Island,Great Kills,Hospital
I'll Be Seeing You,40.552257,-74.191196,"262 Arden Ave (at Nedra Ln), Staten Island, NY 10312",Staten Island,Aspen Knolls,Hospital
Clearview Vision Assco,40.584977,-74.1675,"2555 Richmond Ave, Staten Island, NY 10314",Staten Island,New Springville,Hospital
Visiting Nurse Congregate Care Site,40.642266,-74.096394,"125 Cassidy Pl, Staten Island, NY 10301",Staten Island,New Brighton,Hospital
Institute of Foot & Ankle,40.660053,-74.205965,"927 Elizabeth Ave, Elizabeth, NJ 07201",Elizabeth,Mravlag Manor,Hospital
Performance Edge Chiropractic,40.619845,-73.906857,"7112 Avenue U, Brooklyn, NY 11234",Brooklyn,Georgetown,Hospital
Veterinary Emergency Group,40.615684,-73.929696,"2220 Flatbush Ave, Brooklyn, NY 11234",Brooklyn,Flatlands,Hospital
Fresh Meadows Animal Clinic,40.730264,-73.778252,"19209 Union Tpke, Fresh Meadows, NY 11366",Fresh Meadows,Fresh Meadows,Hospital
Triboro Center,40.831685,-73.911669,"1160 Teller Ave, Bronx, NY 10456",Bronx,East Concourse,Hospital
New York Doctors Urgent Care,40.73667,-73.996998,"65 W 13th St (btwn 5th & 6th Ave), New York, NY 10011",New York,Chelsea,Hospital
Woodpoint Dental,40.716132,-73.941919,"234 Skillman Ave (Woodpoint Rd), Brooklyn, NY 11211",Brooklyn,East Williamsburg,Hospital
BMS Family Health Center,40.665919,-73.900476,"360 Snediker Ave, Brooklyn, NY 11207",Brooklyn,Brownsville,Hospital
Betances Health Center,40.713731,-73.983612,"280 Henry St (Montgomery St.), New York, NY 10002",New York,Downtown,Hospital
Dr. Scafuri and Associates,40.612596,-74.135845,"2177 Victory Blvd, Staten Island, NY 10314",Staten Island,Meiers Corners,Hospital
Dr Ceka's Office,40.51421,-74.235404,"7098 Amboy Rd, Staten Island, NY 10307",Staten Island,Harbor Terrace,Hospital
Drs. Levitt and Ganci DDS,40.780706,-73.801681,"16034 Willets Point Blvd (Francis Lewis Boulevard), Whitestone, NY 11357",Whitestone,Whitestone,Hospital
Professional Transportation,40.685323,-73.863432,"7616 Rockaway Blvd, Woodhaven, NY 11421",Woodhaven,Cypress Hill,Hospital
Bay Ridge Orthopedic Association Of Sheepshead Bay,40.607263,-73.942526,"2950 Avenue R, Brooklyn, NY 11229",Brooklyn,Sheepshead Bay,Hospital
Rain-Personnel,40.846265,-73.862153,"811 Morris Park Ave, Bronx, NY 10462",Bronx,Van Nest,Hospital
New York Cancer & Blood Specialists,40.860106,-73.84283,"2330 Eastchester Rd, Bronx, NY 10469",Bronx,Hillside,Hospital
Animal Hospital of the Five Towns,40.615796,-73.752428,"157 Sheridan Blvd, Inwood, NY 11096",Inwood,Bayswater,Hospital
Our Lady of Mercy,40.896444,-73.864867,"4217 Vireo Ave, Bronx, NY 10470",Bronx,Lincoln,Hospital
Medical Office,40.862434,-73.840551,"2460 Mickle Ave (Mace), Bronx, NY 10469",Bronx,Pelham Parkway,Hospital
"Pinzon, Robin Dr-Riverdale Family Practice",40.879976,-73.907795,"3050 Corlear Ave (at 231st St.), Bronx, NY 10463",Bronx,Kings Bridge,Hospital
Schervier Nursing Care Center,40.881652,-73.918019,"2975 Independence Ave, Bronx, NY 10463",Bronx,Marble Hill,Hospital
Eduardo Belandria,40.84948,-73.937287,"706 W 180th St, New York, NY 10033",New York,Fort George,Hospital
Vanderbilt Clinic Building,40.841277,-73.941087,"622 W 168th St, New York, NY 10032",New York,Uptown,Hospital
Take Care Pharmacy,40.836046,-73.853923,"2134 Starling Ave, Bronx, NY 10462",Bronx,Parkchester,Hospital
J Bonds Counseling and Healing,40.848128,-73.85697,"981 Morris Park Ave, Bronx, NY 10462",Bronx,Van Nest,Hospital
University Nursing Home,40.864838,-73.901929,"2505 Grand Ave, Bronx, NY 10468",Bronx,Fordham,Hospital
"Steven Berkowitz, DDS",40.881423,-73.904127,"237 W 233rd St, Bronx, NY 10463",Bronx,Kings Bridge,Hospital
Saint Joseph's Hospital,40.929131,-73.898814,"44 Vark St, Yonkers, NY 10701",Yonkers,Fildston,Hospital
OLA Wellness,40.845529,-73.827819,"1634 Mahan Ave, Bronx, NY 10461",Bronx,Unionport,Hospital
Kaseman Family Chiropractic,40.831207,-73.826387,"3505 E Tremont Ave, Bronx, NY 10465",Bronx,Schuvilerville,Hospital
Guerrero William E Odpc,40.826391,-73.822277,"3730 E Tremont Ave, Bronx, NY 10465",Bronx,Schuvilerville,Hospital
Optically Yours,40.619091,-74.032662,"9215 3rd Ave, Brooklyn, NY 11209",Brooklyn,Bayridge,Hospital
Bensonhurst 14th Avenue HHC Covid Testing Site,40.625588,-73.998028,"6315 14th Ave (63rd Street), New York, NY 11219",New York,Bensonhurst,Hospital
Smart Eye Care,40.580693,-73.953435,"37 W End Ave, Brooklyn, NY 11235",Brooklyn,Brighton Beach,Hospital
Quest Diagnostics,40.635191,-73.96368,"1416 Newkirk Ave, Brooklyn, NY 11226",Brooklyn,Ditmas Park West,Hospital
Amber Court Of Brooklyn,40.648957,-73.897925,"650 E 104th St, Brooklyn, NY 11236",Brooklyn,Canarsie,Hospital
Neighborhood Natural Medicine,40.710225,-73.949523,"30 Maujer St, Brooklyn, NY 11206",Brooklyn,South Side,Hospital
ModernMD Urgent Care - S.E. Williamsburg,40.703406,-73.942367,"68 Graham Ave (Varet Street), Brooklyn, NY 11206",Brooklyn,East Williasburg,Hospital
Cobble Hill Acupuncture,40.690147,-73.996256,"113A Pacific St, Brooklyn, NY 11201",Brooklyn,Brooklyn Heights,Hospital
HSS Brooklyn,40.655555,-74.011546,"148 39th St, Brooklyn, NY 11232",Brooklyn,Sunset Park,Hospital
One Medical,40.686258,-73.990563,"165 Smith St (Wyckoff), Brooklyn, NY 11201",Brooklyn,BoCoCa,Hospital
AdvantageCare Physicians,40.675405,-73.896382,"101 Pennsylvania Ave (Emerald St), Brooklyn, NY 11207",Brooklyn,Broadway Junction,Hospital
Doshi Diagnostic Imaging,40.619063,-73.916061,"6309 Mill Ln (64th & 65th Streets), Brooklyn, NY 11234",Brooklyn,Georgetown,Hospital
Comprehensive Dental Service,40.598454,-73.979674,"154 Avenue T (W7th st), New York, NY 11223",New York,Bensonhurst,Hospital
Dyker Diagnostic & Analytical Medical Lab,40.620559,-74.006834,"7411 13th Ave, Brooklyn, NY 11228",Brooklyn,Dyker Heights,Hospital
"Aizman Alexander, MD",40.589098,-73.949748,"2960 Ocean Ave, Brooklyn, NY 11235",Brooklyn,Sheepshead Bay,Hospital
Seventh Avenue Dental,40.597532,-73.987867,"8618 25th Ave, Brooklyn, NY 11214",Brooklyn,Bath Beach,Hospital
Medrite Urgent Care,40.688993,-73.992514,"151 Court St, Brooklyn, NY 11201",Brooklyn,Boerum Hill,Hospital
The Brooklyn Hospital Center,40.690104,-73.977933,"121 Dekalb Ave (at Ashland Pl.), Brooklyn, NY 11201",Brooklyn,Clinton Hill,Hospital
PAWSitive Veterinary of New York,40.647279,-73.968985,"1103 Church Ave (Stratford Road), Brooklyn, NY 11218",Brooklyn,Prospect Park Sout,Hospital
Doueck Dental & Sleep Medicine,40.604893,-73.968604,"563 Kings Hwy, Brooklyn, NY 11223",Brooklyn,Gravesend,Hospital
Harlem VistaSite Eye Care,40.806101,-73.953953,"2204 Frederick Douglass Blvd, New York, NY 10026",New York,Central Harlem,Hospital
Harlem Hospital Center,40.814409,-73.940059,"506 Malcolm X Blvd, New York, NY 10037",New York,Central Harlem,Hospital
"Iwamasa, Julia - Advantagecare Physicians Upper East Side Medical Office",40.78443,-73.948748,"215 E 95th St (Between 3rd and 2nd Ave.), New York, NY 10128",New York,Carnegie Hill,Hospital
The Animal Medical Center,40.76022,-73.958041,"510 E 62nd St (at York Ave.), New York, NY 10065",New York,Midtown,Hospital
Mount Sinai West,40.769973,-73.987526,"1000 10th Ave (at 59th Street), New York, NY 10019",New York,San Juan Hill,Hospital
Medical Associates,40.709893,-74.005806,"156 William St (btwn Ann & Beekman St), New York, NY 10038",New York,City Hall,Hospital
Ryan Health,40.793644,-73.967551,"110 W 97th St, New York, NY 10025",New York,Manhattan Valley,Hospital
Common Point,40.718104,-74.009274,"3 Jay St (Hudson St), New York, NY 10013",New York,Civic Center,Hospital
CityMD Sunnyside Urgent Care- Queens,40.742584,-73.917228,"4716 Greenpoint Ave, Sunnyside, NY 11104",Sunnyside,Dutch Kills,Hospital
Citymd,40.760928,-73.917222,"3111 Steinway St (btwn 31st Ave & Broadway), Astoria, NY 11103",Astoria,Astoria,Hospital
Linden Village Chiropractic Center,40.667114,-73.852696,"15144 82nd St, Howard Beach, NY 11414",Howard Beach,Lidenwood,Hospital
"Predanic Mladen, MD",40.701309,-73.816336,"8900 Van Wyck Expy, Richmond Hill, NY 11418",Richmond Hill,Briarwood,Hospital
Mid Flushing Medical Arts,40.760783,-73.827492,"13678 39th Ave, Flushing, NY 11354",Flushing,Down Town Flushing,Hospital
Tribeca Pediatrics,40.722633,-73.949388,"288 Driggs Ave (Leonard St), Brooklyn, NY 11222",Brooklyn,Greenpoint,Hospital
Elmhurst Dental Care,40.747191,-73.877399,"8905 Elmhurst Ave, Elmhurst, NY 11373",Elmhurst,Elmhurst,Hospital
Fishman CTR For Total Eye Care,40.732523,-73.866861,"9229 Queens Blvd, Rego Park, NY 11374",Rego Park,LeFrak City,Hospital
R & I Dental,40.68369,-73.84741,"9302 101st Ave, Ozone Park, NY 11416",Ozone Park,Woodhaven,Hospital
Action Sports Medicine & Pain Management,40.690021,-73.81451,"13104 Liberty Ave, South Richmond Hill, NY 11419",South Richmond Hill,South Richmond Hill,Hospital
Cross Island Chiropractic Center,40.794101,-73.818239,"708 149th St, Queens, NY 11357",Queens,Beechhurst,Hospital
Corbin Family Dental Arts,40.766654,-73.783406,"20417 35th Ave, Bayside, NY 11361",Bayside,Bayside,Hospital
"Kruger Stephen, DDS",40.767878,-73.777682,"20944 35th Ave, Queens, NY 11361",Queens,Bayside,Hospital
Julianna Gilbert Speech - Language Pathologist,40.780765,-73.728405,"1 Chester Dr, Great Neck, NY 11021",Great Neck,Little Neck,Hospital
NYPQ Ob/Gyn Clinic,40.739014,-73.805407,"16303 Horace Harding Expy (164th Street), Fresh Meadows, NY 11365",Fresh Meadows,Pomonok,Hospital
Healthy Latino Community,40.712686,-73.79732,"8506 167th St, Jamaica, NY 11432",Jamaica,Jamaica Hills,Hospital
Community First Medical,40.71417,-73.781315,"87-16 Avon St, New York, NY 11432",New York,Hillside,Hospital
Firehouse Health Center,40.705164,-73.798408,"8956 162nd St, Jamaica, NY 11432",Jamaica,Jamaica,Hospital
South Queens Dialysis Center,40.705553,-73.783065,"17537 Liberty Ave, Jamaica, NY 11433",Jamaica,Hillside,Hospital
Rosedale Dental,40.657236,-73.745471,"23520 147th Ave, Rosedale, NY 11422",Rosedale,Brookville,Hospital
AdvantageCare Physicians,40.661622,-73.709926,"260 W Sunrise Hwy (Central Ave.), Valley Stream, NY 11581",Valley Stream,Rosedale,Hospital
Central Assisted Living,40.605492,-73.751199,"1509 Central Ave, Far Rockaway, NY 11691",Far Rockaway,Far Rockaway,Hospital
Doctors of The World,40.584239,-73.822664,"230 Beach 102nd St, Queens, NY 11694",Queens,Seaside,Hospital
Acupuncture Office,40.583764,-73.949332,"1901 Emmons Ave, Brooklyn, NY 11235",Brooklyn,Manhattan Beach,Hospital
Statcare Urgent & Walk-In Medical Care (Jackson Heights),40.755199,-73.886823,"80-10 Northern Blvd, New York, NY 11372",New York,Jackson Heights,Hospital
BJ's Optical,40.783467,-73.830927,"13705 20th Ave, College Point, NY 11356",College Point,College Point,Hospital
Empire Medical of Rockaway Beach,40.587323,-73.813679,"8820 Rockaway Beach Blvd (88th street), Rockaway Beach, NY 11693",Queens,Seaside,Hospital
Cohen Children's Medical Center,40.753586,-73.708231,"26901 76th Ave, New Hyde Park, NY 11040",New Hyde Park,Glen Oaks,Hospital
"NewYork-Presbyterian Medical Group Queens - Bariatric Surgery, Colorectal Surgery, General Surgery",40.728911,-73.782701,"18603 Union Tpke, Fresh Meadows, NY 11366",Fresh Meadows,Hill Crest,Hospital
AFC Urgent Care Howard Beach,40.671022,-73.855802,"13525 79th St, Howard Beach, NY 11414",Howard Beach,Lidenwood,Hospital
Goldberg Dental of Vly Stream,40.668774,-73.712692,"417 W Merrick Rd (N Waldinger St.), Valley Stream, NY 11580",Valley Stream,Rosedale,Hospital
North Shore LIJ Forest Hills Hospital Medical Library,40.728818,-73.853761,"9931 66th Ave, Rego Park, NY 11374",Rego Park,Forest Hills,Hospital
Lewis Mark,40.580349,-73.837799,"241 Beach 116th St, Rockaway Park, NY 11694",Rockaway Park,Boardwalk,Hospital
Jason M Lacher DPM,40.584999,-73.811943,"8800 Shore Front Pkwy, Rockaway Beach, NY 11693",Rockaway Beach,Hammels,Hospital
Advanced Cosmetic Surgery,40.674387,-73.73193,"13333 Brookville Blvd, Rosedale, NY 11422",Rosedale,Laurelton,Hospital
Rauta Sylvia Dr,40.747287,-73.87784,"4071 Elbertson St, Elmhurst, NY 11373",Elmhurst,Elmhurst,Hospital
Gordon,40.640788,-74.076024,"56 Bay Street Lndg, Staten Island, NY 10301",Staten Island,Brighton Heights,Hospital
St Vincent's New Brighton Family Health Center,40.639281,-74.087554,"376 Jersey St, Staten Island, NY 10301",Staten Island,New Brighton,Hospital
Richmond University Labor And Delivery,40.637423,-74.105737,"355 Bard Ave, Staten Island, NY 10310",Staten Island,Randall Manor,Hospital
Richmond Community Support Org,40.63541,-74.135025,"235 Port Richmond Ave, Staten Island, NY 10302",Staten Island,Port Richmond,Hospital
Act Ambulette,40.637016,-74.146773,"9 Granite Ave, Staten Island, NY 10303",Staten Island,Mariners Harbor,Hospital
A Call Away Footcare,40.571189,-74.110854,"347 New Dorp Ln, Staten Island, NY 10306",Staten Island,New Dorp,Hospital
ProHEALTH Circle Urgent Care of Tottenville,40.516395,-74.234283,"7001 Amboy Rd (Page Avenue), Staten Island, NY 10307",Staten Island,Harbor Terrace,Hospital
Covid-19 Vaccine Hub Site: Empire Outlets,40.644323,-74.075874,"55 Richmond Ter, New York, NY 10301",New York,Howland Hook,Hospital
Brooklyn Medical Group PC,40.64327,-73.979768,"446 McDonald Ave, Brooklyn, NY 11218",Brooklyn,Kensington,Hospital
Doshi Diagnostics,40.648818,-73.943767,"1014 Brooklyn Ave (btwn Tilden & Snyder Ave.), Brooklyn, NY 11203",Brooklyn,East Flatbush,Hospital
"Singh, Kuldeep Vascular Surgery at Staten Island University Hospital",40.583441,-74.0849,"501 Seaview Ave, Staten Island, NY 10305",Staten Island,Midland Beach,Hospital
Robert A Miele,40.572741,-74.113095,"364 Edison St, Staten Island, NY 10306",Staten Island,New Dorp,Hospital
Krietchman Raymond DDS PC,40.573192,-74.110459,"255 Clawson St, Staten Island, NY 10306",Staten Island,New Dorp,Hospital
Kids Dental,40.523587,-74.238603,"4864 Arthur Kill Rd, Staten Island, NY 10309",Staten Island,Richmond Valley,Hospital
Optimum Health and Performance,40.51634,-74.234324,"7001 Amboy Rd, Staten Island, NY 10307",Staten Island,Harbor Terrace,Hospital
"Ruggeri, Mark L, DDS",40.523587,-74.238603,"4864 Arthur Kill Rd, Staten Island, NY 10309",Staten Island,Richmond Valley,Hospital
Eden 2 Institute,40.5528,-74.187304,"381 Carlton Blvd, Staten Island, NY 10312",Staten Island,Aspen Knolls,Hospital
Sterling Optical,40.58281,-74.166058,"2655 Richmond Ave, Staten Island, NY 10314",Staten Island,New Springville,Hospital
Farkas Benjamin Dr,40.590235,-74.164418,"89 Stephen Loop, Staten Island, NY 10314",Staten Island,New Springville,Hospital
Mount Sinai Faculty Practice Associates,40.789141,-73.954262,"5 E 98th St, New York, NY 10029",New York,Carnegie Hill,Hospital
CP Advanced Imaging,40.716571,-73.99625,"155 Canal St, New York, NY 10013",New York,Chinatown,Hospital
LASIK Center of Staten Island,40.568927,-74.114676,"445 Clawson St, Staten Island, NY 10306",Staten Island,New Dorp,Hospital
Sunrise of Staten Island,40.611374,-74.0952,"801 Narrows Rd N, Staten Island, NY 10304",Staten Island,Fox Hills,Hospital
Regional Radiology,40.635181,-74.106907,"360 Bard Ave (at Castleton Ave), Staten Island, NY 10310",Staten Island,Randall Manor,Hospital
Ambulance Network,40.659905,-74.207354,"10 S Spring St, Elizabeth, NJ 07201",Elizabeth,Mravlag Manor,Hospital
Family Foot Care In Queens,40.703882,-73.797927,"16110 Jamaica Ave, Jamaica, NY 11432",Jamaica,Jamaica,Hospital
Queens Hospital Center,40.717144,-73.804372,"8268 164th St, Jamaica, NY 11432",Jamaica,Jamaica Hills,Hospital
Motion Sports Medicine,40.769926,-73.923853,"2717 Crescent St, Astoria, NY 11102",Astoria,Astoria,Hospital
Weill Cornell Medicine,40.692482,-73.99168,"186 Joralemon St (Court Street), Brooklyn, NY 11201",Brooklyn,Boerum Hill,Hospital
Good Reps Physical Therapy,40.67763,-73.956688,"1010 Dean St, New York, NY 11238",New York,Crown Heights,Hospital
St Mary's Hospital Of Brooklyn,40.672917,-73.927291,"1480 Prospect Pl, Brooklyn, NY 11213",Brooklyn,Weeksville,Hospital
Positive Life,40.592683,-73.925241,"2726 Gerritsen Ave, Brooklyn, NY 11229",Brooklyn,Gerritsen,Hospital
Anna Dunevsky,40.60875,-73.959392,"1660 E 14th St, Brooklyn, NY 11229",Brooklyn,Gravesend,Hospital
Narinder M Kukar Physician Pc,40.728599,-73.891119,"7215 Grand Ave, New York, NY 11378",New York,Maspeth,Hospital
Community Pain Medicine,40.769032,-73.827744,"14021 32nd Ave, Flushing, NY 11354",Flushing,Down Town Flushing,Hospital
Independence Residences,40.687411,-73.863988,"9010 77th St, Woodhaven, NY 11421",Woodhaven,Cypress Hill,Hospital
Resort Nursing Home,40.593566,-73.796926,"430 Beach 68th St, Far Rockaway, NY 11692",Far Rockaway,Somerville,Hospital
Rockaway Home Attendant Service,40.604991,-73.751835,"1603 Central Ave, Far Rockaway, NY 11691",Far Rockaway,Far Rockaway,Hospital
NewYork-Presbyterian Alexandra Cohen Hospital for Women and Newborns,40.764104,-73.95605,"1283 York Ave, New York, NY 10065",New York,Lenox Hill,Hospital
Pacia Family Dental,40.902079,-73.811666,"580 Colonial Ave, Pelham, NY 10803",Pelham,Wakefield,Health and Medicine
Innervision Sonograph,40.891616,-73.84673,"4064 Bruner Ave, Bronx, NY 10466",Bronx,Edenwald,Health and Medicine
"NYC Health + Hospitals/Gotham Health, Belvis",40.81003,-73.915796,"545 E 142nd St, Bronx, NY 10454",Bronx,Mott Haven,Health and Medicine
Medical & Dental Office,40.828445,-73.876594,"1163 Manor Ave (Westcher Avenue), Bronx, NY 10472",Bronx,Longwood,Health and Medicine
"Mount Sinai Doctors-Inwood, Urgent Care",40.868983,-73.916883,"5030 Broadway, New York, NY 10034",New York,Inwood,Health and Medicine
Siegal-Lutzker Roberta,40.887667,-73.909179,"3640 Johnson Ave, Bronx, NY 10463",Bronx,Kingsbridge,Health and Medicine
Take Care Pharmacy,40.836046,-73.853923,"2134 Starling Ave, Bronx, NY 10462",Bronx,Parkchester,Health and Medicine
All Med Medical,40.899422,-73.858404,"4377 Bronx Blvd (Neried Ave), Bronx, NY 10466",Bronx,Wakefield,Health and Medicine
Dr Koutelos,40.620473,-74.023526,"8501 Fort Hamilton Pkwy, Brooklyn, NY 11209",Brooklyn,Bayridge,Health and Medicine
Doshi Diagnostic Imaging Service,40.636716,-74.012759,"667 61st St, Brooklyn, NY 11220",Brooklyn,Bayridge,Health and Medicine
Manhattan Beach Animal Clinic,40.579814,-73.958102,"126 Brighton 11th St, Brooklyn, NY 11235",Brooklyn,Brighton Beach,Health and Medicine
Leung Euston MD,40.617735,-73.969756,"1266 Ocean Pkwy, Brooklyn, NY 11230",Brooklyn,Ocean Parkway,Health and Medicine
Hartman Jenna Maimonides Community Mental Health Center Brooklyn,40.640308,-73.999567,"920 48th St, Brooklyn, NY 11219",Brooklyn,Kensington,Health and Medicine
Bedford Stuyvesant Family Health Center,40.680273,-73.944535,"1456 Fulton St (btwn Brooklyn & Kingston), Brooklyn, NY 11216",Brooklyn,Bedford,Health and Medicine
Mount Sinai Doctors Brooklyn Heights,40.695084,-73.991171,"300 Cadman Plz W (Pierrepont), Brooklyn, NY 11201",Brooklyn,Brooklyn Heights,Health and Medicine
CityMD Boerum Hill Urgent Care - Brooklyn,40.686162,-73.982184,"457 Atlantic Ave (Nevins Street), New York, NY 11217",New York,Boerum Hill,Health and Medicine
Recovery,40.639218,-73.917822,"572 E 80th St, Brooklyn, NY 11236",Brooklyn,Georgetown,Health and Medicine
Sheepshead Bay Nursing Home,40.585259,-73.931675,"2840 Knapp St, Brooklyn, NY 11235",Brooklyn,Plum Beach,Health and Medicine
Gupta Gastro Associates - Brooklyn Gastroenterology,40.607578,-73.982861,"130 Avenue P, Brooklyn, NY 11204",Brooklyn,Bensonhurst,Health and Medicine
Quality Laboratory Service,40.592551,-73.950495,"2818 Ocean Ave, Brooklyn, NY 11235",Brooklyn,Sheepshead Bay,Health and Medicine
Americare Therapy Service,40.608304,-73.915569,"5923 Strickland Ave, Brooklyn, NY 11234",Brooklyn,Mill Island,Health and Medicine
"MedRite Urgent Care, Clinton Hill",40.693322,-73.964578,"504 Myrtle Ave (Ryerson), Brooklyn, NY 11205",Brooklyn,Clinton Hill,Health and Medicine
Schweiger Dermatology Group,40.793971,-73.969443,"137 W 96th St, New York, NY 10025",New York,Manhattan Valley,Health and Medicine
Flatiron Pediatrics,40.740257,-73.988057,"27 E 22nd St, New York, NY 10010",New York,Chelsea,Health and Medicine
David H. Koch Center for Cancer Care at Memorial Sloan Kettering Cancer Center,40.767208,-73.95097,"530 E 74th St, New York, NY 10021",New York,Lenox Hill,Health and Medicine
Elmhurst Dental Care,40.747191,-73.877399,"8905 Elmhurst Ave, Elmhurst, NY 11373",Elmhurst,Elmhurst,Health and Medicine
AFC Urgent Care Howard Beach,40.671022,-73.855802,"13525 79th St, Howard Beach, NY 11414",Howard Beach,Lidenwood,Health and Medicine
Midopa Optics,40.760469,-73.827131,"13689 Roosevelt Ave, Flushing, NY 11354",Flushing,Down Town Flushing,Health and Medicine
Rauta Sylvia Dr,40.747287,-73.87784,"4071 Elbertson St, Elmhurst, NY 11373",Elmhurst,Elmhurst,Health and Medicine
Professional Transportation,40.685323,-73.863432,"7616 Rockaway Blvd, Woodhaven, NY 11421",Woodhaven,Cypress Hill,Health and Medicine
Richmond Hill Physicians,40.688406,-73.825469,"10152 Lefferts Blvd, Richmond Hill, NY 11419",Richmond Hill,South Richmond Hill,Health and Medicine
Union Plaza Care Center,40.767217,-73.82698,"3323 Union St, Flushing, NY 11354",Flushing,Down Town Flushing,Health and Medicine
Long Island Bird & Exotics Veterinary Clinic,40.779262,-73.732461,"333 Great Neck Rd, Great Neck, NY 11021",Great Neck,Little Neck,Health and Medicine
Lifespire Springfield Gardens,40.676598,-73.751275,"13604 220th St, Laurelton, NY 11413",Laurelton,Laurelton,Health and Medicine
Exclusive Ambulette Service,40.599212,-73.754684,"431 Beach 20th St, Far Rockaway, NY 11691",Far Rockaway,Bayswater,Health and Medicine
Rothstein Bruce DDS,40.581484,-73.954031,"2 W End Ave, Brooklyn, NY 11235",Brooklyn,Brighton Beach,Health and Medicine
Ear Nose & Throat,40.776552,-73.782484,"2601 Corporal Kennedy St (Corner of 26 Ave & Corp Kennedy St), Bayside, NY 11360",Bayside,Bay Terrace,Health and Medicine
"Kruger Stephen, DDS",40.767878,-73.777682,"20944 35th Ave, Queens, NY 11361",Queens,Bayside,Health and Medicine
